{
  "records": [
    {
      "country": "India",
      "state": "Assam",
      "city": "Guwahati",
      "station": "Railway Colony, Guwahati - PCBA",
      "last_update": "24-01-2025 08:00:00",
      "latitude": "26.181742",
      "longitude": "91.78063",
      "pollutant_id": "SO2",
      "min_value": "13",
      "max_value": "14",
      "avg_value": "14"
    },
    {
      "country": "India",
      "state": "Assam",
      "city": "Nagaon",
      "station": "Christianpatty, Nagaon - PCBA",
      "last_update": "24-01-2025 08:00:00",
      "latitude": "26.349082",
      "longitude": "92.68449",
      "pollutant_id": "SO2",
      "min_value": "4",
      "max_value": "10",
      "avg_value": "6"
    },
    {
      "country": "India",
      "state": "Assam",
      "city": "Nagaon",
      "station": "Christianpatty, Nagaon - PCBA",
      "last_update": "24-01-2025 08:00:00",
      "latitude": "26.349082",
      "longitude": "92.68449",
      "pollutant_id": "CO",
      "min_value": "36",
      "max_value": "60",
      "avg_value": "46"
    },
    {
      "country": "India",
      "state": "Assam",
      "city": "Nalbari",
      "station": "Bata Chowk, Nalbari - PCBA",
      "last_update": "24-01-2025 08:00:00",
      "latitude": "26.446912",
      "longitude": "91.439057",
      "pollutant_id": "NO2",
      "min_value": "7",
      "max_value": "29",
      "avg_value": "16"
    },
    {
      "country": "India",
      "state": "Assam",
      "city": "Nalbari",
      "station": "Bata Chowk, Nalbari - PCBA",
      "last_update": "24-01-2025 08:00:00",
      "latitude": "26.446912",
      "longitude": "91.439057",
      "pollutant_id": "NH3",
      "min_value": "1",
      "max_value": "2",
      "avg_value": "2"
    },
    {
      "country": "India",
      "state": "Assam",
      "city": "Silchar",
      "station": "Tarapur, Silchar - PCBA",
      "last_update": "24-01-2025 08:00:00",
      "latitude": "24.82827",
      "longitude": "92.79525",
      "pollutant_id": "PM2.5",
      "min_value": "NA",
      "max_value": "NA",
      "avg_value": "NA"
    },
    {
      "country": "India",
      "state": "Assam",
      "city": "Silchar",
      "station": "Tarapur, Silchar - PCBA",
      "last_update": "24-01-2025 08:00:00",
      "latitude": "24.82827",
      "longitude": "92.79525",
      "pollutant_id": "PM10",
      "min_value": "55",
      "max_value": "63",
      "avg_value": "58"
    },
    {
      "country": "India",
      "state": "Assam",
      "city": "Sivasagar",
      "station": "Girls College, Sivasagar - PCBA",
      "last_update": "24-01-2025 08:00:00",
      "latitude": "26.987634",
      "longitude": "94.636574",
      "pollutant_id": "SO2",
      "min_value": "7",
      "max_value": "11",
      "avg_value": "7"
    },
    {
      "country": "India",
      "state": "Bihar",
      "city": "Araria",
      "station": "Kharahiya Basti, Araria - BSPCB",
      "last_update": "24-01-2025 08:00:00",
      "latitude": "26.146529",
      "longitude": "87.454184",
      "pollutant_id": "PM2.5",
      "min_value": "47",
      "max_value": "143",
      "avg_value": "84"
    },
    {
      "country": "India",
      "state": "Bihar",
      "city": "Araria",
      "station": "Kharahiya Basti, Araria - BSPCB",
      "last_update": "24-01-2025 08:00:00",
      "latitude": "26.146529",
      "longitude": "87.454184",
      "pollutant_id": "SO2",
      "min_value": "17",
      "max_value": "19",
      "avg_value": "18"
    },
    {
      "country": "India",
      "state": "Bihar",
      "city": "Arrah",
      "station": "New DM Office, Arrah - BSPCB",
      "last_update": "24-01-2025 08:00:00",
      "latitude": "25.5626095",
      "longitude": "84.663264",
      "pollutant_id": "PM10",
      "min_value": "119",
      "max_value": "162",
      "avg_value": "140"
    },
    {
      "country": "India",
      "state": "Andhra_Pradesh",
      "city": "Tirumala",
      "station": "Toll Gate, Tirumala - APPCB (Formerly known as Tirumala, Tirupati - APPCB)",
      "last_update": "24-01-2025 08:00:00",
      "latitude": "13.67",
      "longitude": "79.35",
      "pollutant_id": "NO2",
      "min_value": "17",
      "max_value": "29",
      "avg_value": "22"
    },
    {
      "country": "India",
      "state": "Andhra_Pradesh",
      "city": "Tirumala",
      "station": "Toll Gate, Tirumala - APPCB (Formerly known as Tirumala, Tirupati - APPCB)",
      "last_update": "24-01-2025 08:00:00",
      "latitude": "13.67",
      "longitude": "79.35",
      "pollutant_id": "NH3",
      "min_value": "1",
      "max_value": "2",
      "avg_value": "2"
    },
    {
      "country": "India",
      "state": "Andhra_Pradesh",
      "city": "Vijayawada",
      "station": "Kanuru, Vijayawada - APPCB",
      "last_update": "24-01-2025 08:00:00",
      "latitude": "16.486692",
      "longitude": "80.699436",
      "pollutant_id": "PM2.5",
      "min_value": "57",
      "max_value": "71",
      "avg_value": "63"
    },
    {
      "country": "India",
      "state": "Andhra_Pradesh",
      "city": "Vijayawada",
      "station": "Rajiv Gandhi Park, Vijayawada - APPCB",
      "last_update": "24-01-2025 08:00:00",
      "latitude": "16.509717",
      "longitude": "80.612222",
      "pollutant_id": "SO2",
      "min_value": "6",
      "max_value": "10",
      "avg_value": "8"
    },
    {
      "country": "India",
      "state": "Andhra_Pradesh",
      "city": "Vijayawada",
      "station": "Rajiv Nagar, Vijayawada - APPCB",
      "last_update": "24-01-2025 08:00:00",
      "latitude": "16.554731",
      "longitude": "80.649110",
      "pollutant_id": "PM2.5",
      "min_value": "61",
      "max_value": "72",
      "avg_value": "66"
    },
    {
      "country": "India",
      "state": "Andhra_Pradesh",
      "city": "Visakhapatnam",
      "station": "GVM Corporation, Visakhapatnam - APPCB",
      "last_update": "24-01-2025 08:00:00",
      "latitude": "17.72",
      "longitude": "83.3",
      "pollutant_id": "PM2.5",
      "min_value": "84",
      "max_value": "327",
      "avg_value": "220"
    },
    {
      "country": "India",
      "state": "Andhra_Pradesh",
      "city": "Visakhapatnam",
      "station": "GVM Corporation, Visakhapatnam - APPCB",
      "last_update": "24-01-2025 08:00:00",
      "latitude": "17.72",
      "longitude": "83.3",
      "pollutant_id": "NO2",
      "min_value": "46",
      "max_value": "131",
      "avg_value": "91"
    },
    {
      "country": "India",
      "state": "Andhra_Pradesh",
      "city": "Visakhapatnam",
      "station": "GVM Corporation, Visakhapatnam - APPCB",
      "last_update": "24-01-2025 08:00:00",
      "latitude": "17.72",
      "longitude": "83.3",
      "pollutant_id": "NH3",
      "min_value": "2",
      "max_value": "6",
      "avg_value": "4"
    },
    {
      "country": "India",
      "state": "Andhra_Pradesh",
      "city": "Visakhapatnam",
      "station": "GVM Corporation, Visakhapatnam - APPCB",
      "last_update": "24-01-2025 08:00:00",
      "latitude": "17.72",
      "longitude": "83.3",
      "pollutant_id": "OZONE",
      "min_value": "2",
      "max_value": "15",
      "avg_value": "5"
    },
    {
      "country": "India",
      "state": "Arunachal_Pradesh",
      "city": "Naharlagun",
      "station": "Naharlagun, Naharlagun - APSPCB",
      "last_update": "24-01-2025 08:00:00",
      "latitude": "27.103358",
      "longitude": "93.679645",
      "pollutant_id": "OZONE",
      "min_value": "3",
      "max_value": "3",
      "avg_value": "3"
    },
    {
      "country": "India",
      "state": "Assam",
      "city": "Guwahati",
      "station": "IITG, Guwahati - PCBA",
      "last_update": "24-01-2025 08:00:00",
      "latitude": "26.2028636",
      "longitude": "91.70046436",
      "pollutant_id": "PM10",
      "min_value": "161",
      "max_value": "225",
      "avg_value": "186"
    },
    {
      "country": "India",
      "state": "Assam",
      "city": "Guwahati",
      "station": "IITG, Guwahati - PCBA",
      "last_update": "24-01-2025 08:00:00",
      "latitude": "26.2028636",
      "longitude": "91.70046436",
      "pollutant_id": "NO2",
      "min_value": "1",
      "max_value": "5",
      "avg_value": "3"
    },
    {
      "country": "India",
      "state": "Assam",
      "city": "Guwahati",
      "station": "LGBI Airport, Guwahati - PCBA",
      "last_update": "24-01-2025 08:00:00",
      "latitude": "26.10887",
      "longitude": "91.589544",
      "pollutant_id": "PM10",
      "min_value": "44",
      "max_value": "66",
      "avg_value": "47"
    },
    {
      "country": "India",
      "state": "Bihar",
      "city": "Arrah",
      "station": "New DM Office, Arrah - BSPCB",
      "last_update": "24-01-2025 08:00:00",
      "latitude": "25.5626095",
      "longitude": "84.663264",
      "pollutant_id": "CO",
      "min_value": "10",
      "max_value": "29",
      "avg_value": "19"
    },
    {
      "country": "India",
      "state": "Bihar",
      "city": "Arrah",
      "station": "New DM Office, Arrah - BSPCB",
      "last_update": "24-01-2025 08:00:00",
      "latitude": "25.5626095",
      "longitude": "84.663264",
      "pollutant_id": "OZONE",
      "min_value": "4",
      "max_value": "76",
      "avg_value": "13"
    },
    {
      "country": "India",
      "state": "Bihar",
      "city": "Aurangabad",
      "station": "Gurdeo Nagar, Aurangabad - BSPCB",
      "last_update": "24-01-2025 08:00:00",
      "latitude": "24.75746",
      "longitude": "84.366208",
      "pollutant_id": "PM2.5",
      "min_value": "82",
      "max_value": "351",
      "avg_value": "230"
    },
    {
      "country": "India",
      "state": "Andhra_Pradesh",
      "city": "Amaravati",
      "station": "Secretariat, Amaravati - APPCB",
      "last_update": "24-01-2025 08:00:00",
      "latitude": "16.5150833",
      "longitude": "80.5181667",
      "pollutant_id": "PM2.5",
      "min_value": "16",
      "max_value": "86",
      "avg_value": "57"
    },
    {
      "country": "India",
      "state": "Andhra_Pradesh",
      "city": "Amaravati",
      "station": "Secretariat, Amaravati - APPCB",
      "last_update": "24-01-2025 08:00:00",
      "latitude": "16.5150833",
      "longitude": "80.5181667",
      "pollutant_id": "CO",
      "min_value": "2",
      "max_value": "87",
      "avg_value": "30"
    },
    {
      "country": "India",
      "state": "Andhra_Pradesh",
      "city": "Amaravati",
      "station": "Secretariat, Amaravati - APPCB",
      "last_update": "24-01-2025 08:00:00",
      "latitude": "16.5150833",
      "longitude": "80.5181667",
      "pollutant_id": "OZONE",
      "min_value": "5",
      "max_value": "58",
      "avg_value": "10"
    },
    {
      "country": "India",
      "state": "Bihar",
      "city": "Bhagalpur",
      "station": "Mayaganj, Bhagalpur - BSPCB",
      "last_update": "24-01-2025 08:00:00",
      "latitude": "25.265194",
      "longitude": "87.012947",
      "pollutant_id": "PM10",
      "min_value": "136",
      "max_value": "202",
      "avg_value": "154"
    },
    {
      "country": "India",
      "state": "Bihar",
      "city": "Bhagalpur",
      "station": "Mayaganj, Bhagalpur - BSPCB",
      "last_update": "24-01-2025 08:00:00",
      "latitude": "25.265194",
      "longitude": "87.012947",
      "pollutant_id": "NH3",
      "min_value": "10",
      "max_value": "11",
      "avg_value": "10"
    },
    {
      "country": "India",
      "state": "Andhra_Pradesh",
      "city": "Kadapa",
      "station": "Yerramukkapalli, Kadapa - APPCB",
      "last_update": "24-01-2025 08:00:00",
      "latitude": "14.465052",
      "longitude": "78.824187",
      "pollutant_id": "OZONE",
      "min_value": "60",
      "max_value": "60",
      "avg_value": "60"
    },
    {
      "country": "India",
      "state": "Assam",
      "city": "Guwahati",
      "station": "Railway Colony, Guwahati - PCBA",
      "last_update": "24-01-2025 08:00:00",
      "latitude": "26.181742",
      "longitude": "91.78063",
      "pollutant_id": "PM2.5",
      "min_value": "263",
      "max_value": "329",
      "avg_value": "310"
    },
    {
      "country": "India",
      "state": "Bihar",
      "city": "Muzaffarpur",
      "station": "Buddha Colony, Muzaffarpur - BSPCB",
      "last_update": "24-01-2025 08:00:00",
      "latitude": "26.11442",
      "longitude": "85.39813",
      "pollutant_id": "PM2.5",
      "min_value": "116",
      "max_value": "303",
      "avg_value": "232"
    },
    {
      "country": "India",
      "state": "Bihar",
      "city": "Muzaffarpur",
      "station": "MIT-Daudpur Kothi, Muzaffarpur - BSPCB",
      "last_update": "24-01-2025 08:00:00",
      "latitude": "26.1403345",
      "longitude": "85.3650192",
      "pollutant_id": "PM2.5",
      "min_value": "72",
      "max_value": "500",
      "avg_value": "251"
    },
    {
      "country": "India",
      "state": "Bihar",
      "city": "Muzaffarpur",
      "station": "Muzaffarpur Collectorate, Muzaffarpur - BSPCB",
      "last_update": "24-01-2025 08:00:00",
      "latitude": "26.1209",
      "longitude": "85.3647",
      "pollutant_id": "PM2.5",
      "min_value": "79",
      "max_value": "289",
      "avg_value": "169"
    },
    {
      "country": "India",
      "state": "Bihar",
      "city": "Muzaffarpur",
      "station": "Muzaffarpur Collectorate, Muzaffarpur - BSPCB",
      "last_update": "24-01-2025 08:00:00",
      "latitude": "26.1209",
      "longitude": "85.3647",
      "pollutant_id": "NO2",
      "min_value": "10",
      "max_value": "22",
      "avg_value": "11"
    },
    {
      "country": "India",
      "state": "Bihar",
      "city": "Muzaffarpur",
      "station": "Muzaffarpur Collectorate, Muzaffarpur - BSPCB",
      "last_update": "24-01-2025 08:00:00",
      "latitude": "26.1209",
      "longitude": "85.3647",
      "pollutant_id": "SO2",
      "min_value": "5",
      "max_value": "8",
      "avg_value": "6"
    },
    {
      "country": "India",
      "state": "Bihar",
      "city": "Patna",
      "station": "DRM Office Danapur, Patna - BSPCB",
      "last_update": "24-01-2025 08:00:00",
      "latitude": "25.586562",
      "longitude": "85.043586",
      "pollutant_id": "PM2.5",
      "min_value": "190",
      "max_value": "324",
      "avg_value": "271"
    },
    {
      "country": "India",
      "state": "Bihar",
      "city": "Chhapra",
      "station": "Darshan Nagar, Chhapra - BSPCB",
      "last_update": "24-01-2025 08:00:00",
      "latitude": "25.7808257",
      "longitude": "84.7446768",
      "pollutant_id": "PM10",
      "min_value": "115",
      "max_value": "167",
      "avg_value": "137"
    },
    {
      "country": "India",
      "state": "Bihar",
      "city": "Chhapra",
      "station": "Darshan Nagar, Chhapra - BSPCB",
      "last_update": "24-01-2025 08:00:00",
      "latitude": "25.7808257",
      "longitude": "84.7446768",
      "pollutant_id": "NH3",
      "min_value": "16",
      "max_value": "19",
      "avg_value": "18"
    },
    {
      "country": "India",
      "state": "Bihar",
      "city": "Chhapra",
      "station": "Darshan Nagar, Chhapra - BSPCB",
      "last_update": "24-01-2025 08:00:00",
      "latitude": "25.7808257",
      "longitude": "84.7446768",
      "pollutant_id": "CO",
      "min_value": "32",
      "max_value": "50",
      "avg_value": "42"
    },
    {
      "country": "India",
      "state": "Bihar",
      "city": "Chhapra",
      "station": "Darshan Nagar, Chhapra - BSPCB",
      "last_update": "24-01-2025 08:00:00",
      "latitude": "25.7808257",
      "longitude": "84.7446768",
      "pollutant_id": "OZONE",
      "min_value": "1",
      "max_value": "6",
      "avg_value": "1"
    },
    {
      "country": "India",
      "state": "Bihar",
      "city": "Gaya",
      "station": "Collectorate, Gaya - BSPCB",
      "last_update": "24-01-2025 08:00:00",
      "latitude": "24.7955",
      "longitude": "84.9994",
      "pollutant_id": "NO2",
      "min_value": "5",
      "max_value": "11",
      "avg_value": "8"
    },
    {
      "country": "India",
      "state": "Bihar",
      "city": "Gaya",
      "station": "Collectorate, Gaya - BSPCB",
      "last_update": "24-01-2025 08:00:00",
      "latitude": "24.7955",
      "longitude": "84.9994",
      "pollutant_id": "CO",
      "min_value": "30",
      "max_value": "132",
      "avg_value": "43"
    },
    {
      "country": "India",
      "state": "Bihar",
      "city": "Gaya",
      "station": "Collectorate, Gaya - BSPCB",
      "last_update": "24-01-2025 08:00:00",
      "latitude": "24.7955",
      "longitude": "84.9994",
      "pollutant_id": "OZONE",
      "min_value": "19",
      "max_value": "21",
      "avg_value": "20"
    },
    {
      "country": "India",
      "state": "Bihar",
      "city": "Patna",
      "station": "Rajbansi Nagar, Patna - BSPCB",
      "last_update": "24-01-2025 08:00:00",
      "latitude": "25.599486",
      "longitude": "85.113666",
      "pollutant_id": "PM10",
      "min_value": "92",
      "max_value": "151",
      "avg_value": "122"
    },
    {
      "country": "India",
      "state": "Bihar",
      "city": "Patna",
      "station": "Rajbansi Nagar, Patna - BSPCB",
      "last_update": "24-01-2025 08:00:00",
      "latitude": "25.599486",
      "longitude": "85.113666",
      "pollutant_id": "NH3",
      "min_value": "2",
      "max_value": "3",
      "avg_value": "2"
    },
    {
      "country": "India",
      "state": "Bihar",
      "city": "Patna",
      "station": "Samanpura, Patna - BSPCB",
      "last_update": "24-01-2025 08:00:00",
      "latitude": "25.596727",
      "longitude": "85.085624",
      "pollutant_id": "PM2.5",
      "min_value": "NA",
      "max_value": "NA",
      "avg_value": "NA"
    },
    {
      "country": "India",
      "state": "Bihar",
      "city": "Purnia",
      "station": "Mariam Nagar, Purnia - BSPCB",
      "last_update": "24-01-2025 08:00:00",
      "latitude": "25.366336",
      "longitude": "87.117468",
      "pollutant_id": "SO2",
      "min_value": "12",
      "max_value": "17",
      "avg_value": "16"
    },
    {
      "country": "India",
      "state": "Bihar",
      "city": "Purnia",
      "station": "Mariam Nagar, Purnia - BSPCB",
      "last_update": "24-01-2025 08:00:00",
      "latitude": "25.366336",
      "longitude": "87.117468",
      "pollutant_id": "OZONE",
      "min_value": "23",
      "max_value": "29",
      "avg_value": "29"
    },
    {
      "country": "India",
      "state": "Bihar",
      "city": "Rajgir",
      "station": "Dangi Tola, Rajgir - BSPCB",
      "last_update": "24-01-2025 08:00:00",
      "latitude": "25.03280",
      "longitude": "85.41948",
      "pollutant_id": "SO2",
      "min_value": "1",
      "max_value": "15",
      "avg_value": "8"
    },
    {
      "country": "India",
      "state": "Bihar",
      "city": "Saharsa",
      "station": "Police Line, Saharsa - BSPCB",
      "last_update": "24-01-2025 08:00:00",
      "latitude": "25.892357",
      "longitude": "86.590325",
      "pollutant_id": "NO2",
      "min_value": "1",
      "max_value": "4",
      "avg_value": "1"
    },
    {
      "country": "India",
      "state": "Bihar",
      "city": "Samastipur",
      "station": "DM Office_Kasipur, Samastipur - BSPCB",
      "last_update": "24-01-2025 08:00:00",
      "latitude": "25.859655",
      "longitude": "85.77944",
      "pollutant_id": "PM10",
      "min_value": "53",
      "max_value": "172",
      "avg_value": "84"
    },
    {
      "country": "India",
      "state": "Bihar",
      "city": "Samastipur",
      "station": "DM Office_Kasipur, Samastipur - BSPCB",
      "last_update": "24-01-2025 08:00:00",
      "latitude": "25.859655",
      "longitude": "85.77944",
      "pollutant_id": "CO",
      "min_value": "59",
      "max_value": "70",
      "avg_value": "64"
    },
    {
      "country": "India",
      "state": "Bihar",
      "city": "Siwan",
      "station": "Chitragupta Nagar, Siwan - BSPCB",
      "last_update": "24-01-2025 08:00:00",
      "latitude": "26.2271665",
      "longitude": "84.3570427",
      "pollutant_id": "CO",
      "min_value": "92",
      "max_value": "116",
      "avg_value": "99"
    },
    {
      "country": "India",
      "state": "Chandigarh",
      "city": "Chandigarh",
      "station": "Sector-25, Chandigarh - CPCC",
      "last_update": "24-01-2025 08:00:00",
      "latitude": "30.751462",
      "longitude": "76.762879",
      "pollutant_id": "NO2",
      "min_value": "NA",
      "max_value": "NA",
      "avg_value": "NA"
    },
    {
      "country": "India",
      "state": "Chandigarh",
      "city": "Chandigarh",
      "station": "Sector-25, Chandigarh - CPCC",
      "last_update": "24-01-2025 08:00:00",
      "latitude": "30.751462",
      "longitude": "76.762879",
      "pollutant_id": "CO",
      "min_value": "14",
      "max_value": "28",
      "avg_value": "25"
    },
    {
      "country": "India",
      "state": "Bihar",
      "city": "Kishanganj",
      "station": "SDM Office_Khagra, Kishanganj - BSPCB",
      "last_update": "24-01-2025 08:00:00",
      "latitude": "26.0881305",
      "longitude": "87.93840336",
      "pollutant_id": "SO2",
      "min_value": "4",
      "max_value": "14",
      "avg_value": "8"
    },
    {
      "country": "India",
      "state": "Bihar",
      "city": "Kishanganj",
      "station": "SDM Office_Khagra, Kishanganj - BSPCB",
      "last_update": "24-01-2025 08:00:00",
      "latitude": "26.0881305",
      "longitude": "87.93840336",
      "pollutant_id": "OZONE",
      "min_value": "15",
      "max_value": "23",
      "avg_value": "19"
    },
    {
      "country": "India",
      "state": "Bihar",
      "city": "Kishanganj",
      "station": "SDM Office_Khagra, Kishanganj - BSPCB",
      "last_update": "24-01-2025 08:00:00",
      "latitude": "26.0881305",
      "longitude": "87.93840336",
      "pollutant_id": "PM2.5",
      "min_value": "57",
      "max_value": "109",
      "avg_value": "85"
    },
    {
      "country": "India",
      "state": "Bihar",
      "city": "Kishanganj",
      "station": "SDM Office_Khagra, Kishanganj - BSPCB",
      "last_update": "24-01-2025 08:00:00",
      "latitude": "26.0881305",
      "longitude": "87.93840336",
      "pollutant_id": "NO2",
      "min_value": "23",
      "max_value": "24",
      "avg_value": "24"
    },
    {
      "country": "India",
      "state": "Bihar",
      "city": "Patna",
      "station": "Govt. High School Shikarpur, Patna - BSPCB",
      "last_update": "24-01-2025 08:00:00",
      "latitude": "25.592539",
      "longitude": "85.227158",
      "pollutant_id": "NO2",
      "min_value": "7",
      "max_value": "15",
      "avg_value": "10"
    },
    {
      "country": "India",
      "state": "Bihar",
      "city": "Patna",
      "station": "Govt. High School Shikarpur, Patna - BSPCB",
      "last_update": "24-01-2025 08:00:00",
      "latitude": "25.592539",
      "longitude": "85.227158",
      "pollutant_id": "SO2",
      "min_value": "3",
      "max_value": "10",
      "avg_value": "7"
    },
    {
      "country": "India",
      "state": "Bihar",
      "city": "Gaya",
      "station": "SFTI Kusdihra, Gaya - BSPCB",
      "last_update": "24-01-2025 08:00:00",
      "latitude": "24.762518",
      "longitude": "84.982348",
      "pollutant_id": "NO2",
      "min_value": "11",
      "max_value": "29",
      "avg_value": "22"
    },
    {
      "country": "India",
      "state": "Chhattisgarh",
      "city": "Milupara",
      "station": "Govt. Higher Secondary School, Milupara - CECB",
      "last_update": "24-01-2025 08:00:00",
      "latitude": "22.1910172",
      "longitude": "83.5197009",
      "pollutant_id": "NH3",
      "min_value": "1",
      "max_value": "2",
      "avg_value": "2"
    },
    {
      "country": "India",
      "state": "Chhattisgarh",
      "city": "Milupara",
      "station": "Govt. Higher Secondary School, Milupara - CECB",
      "last_update": "24-01-2025 08:00:00",
      "latitude": "22.1910172",
      "longitude": "83.5197009",
      "pollutant_id": "SO2",
      "min_value": "8",
      "max_value": "100",
      "avg_value": "31"
    },
    {
      "country": "India",
      "state": "Chhattisgarh",
      "city": "Milupara",
      "station": "Govt. Higher Secondary School, Milupara - CECB",
      "last_update": "24-01-2025 08:00:00",
      "latitude": "22.1910172",
      "longitude": "83.5197009",
      "pollutant_id": "CO",
      "min_value": "28",
      "max_value": "70",
      "avg_value": "32"
    },
    {
      "country": "India",
      "state": "Chhattisgarh",
      "city": "Raipur",
      "station": "AIIMS, Raipur - CECB",
      "last_update": "24-01-2025 08:00:00",
      "latitude": "21.258815",
      "longitude": "81.578979",
      "pollutant_id": "SO2",
      "min_value": "4",
      "max_value": "29",
      "avg_value": "12"
    },
    {
      "country": "India",
      "state": "Chhattisgarh",
      "city": "Raipur",
      "station": "AIIMS, Raipur - CECB",
      "last_update": "24-01-2025 08:00:00",
      "latitude": "21.258815",
      "longitude": "81.578979",
      "pollutant_id": "CO",
      "min_value": "20",
      "max_value": "84",
      "avg_value": "60"
    },
    {
      "country": "India",
      "state": "Chhattisgarh",
      "city": "Raipur",
      "station": "Bhatagaon New ISBT, Raipur - CECB",
      "last_update": "24-01-2025 08:00:00",
      "latitude": "21.219665",
      "longitude": "81.630094",
      "pollutant_id": "SO2",
      "min_value": "4",
      "max_value": "11",
      "avg_value": "8"
    },
    {
      "country": "India",
      "state": "Chhattisgarh",
      "city": "Raipur",
      "station": "Krishak Nagar, Raipur - CECB",
      "last_update": "24-01-2025 08:00:00",
      "latitude": "21.237755",
      "longitude": "81.705301",
      "pollutant_id": "PM10",
      "min_value": "46",
      "max_value": "144",
      "avg_value": "96"
    },
    {
      "country": "India",
      "state": "Delhi",
      "city": "Delhi",
      "station": "Alipur, Delhi - DPCC",
      "last_update": "24-01-2025 08:00:00",
      "latitude": "28.815329",
      "longitude": "77.153010",
      "pollutant_id": "CO",
      "min_value": "30",
      "max_value": "57",
      "avg_value": "40"
    },
    {
      "country": "India",
      "state": "Delhi",
      "city": "Delhi",
      "station": "Anand Vihar, Delhi - DPCC",
      "last_update": "24-01-2025 08:00:00",
      "latitude": "28.647622",
      "longitude": "77.3158090",
      "pollutant_id": "PM10",
      "min_value": "126",
      "max_value": "256",
      "avg_value": "188"
    },
    {
      "country": "India",
      "state": "Delhi",
      "city": "Delhi",
      "station": "Anand Vihar, Delhi - DPCC",
      "last_update": "24-01-2025 08:00:00",
      "latitude": "28.647622",
      "longitude": "77.3158090",
      "pollutant_id": "NH3",
      "min_value": "11",
      "max_value": "18",
      "avg_value": "15"
    },
    {
      "country": "India",
      "state": "Delhi",
      "city": "Delhi",
      "station": "Anand Vihar, Delhi - DPCC",
      "last_update": "24-01-2025 08:00:00",
      "latitude": "28.647622",
      "longitude": "77.3158090",
      "pollutant_id": "OZONE",
      "min_value": "4",
      "max_value": "10",
      "avg_value": "5"
    },
    {
      "country": "India",
      "state": "Delhi",
      "city": "Delhi",
      "station": "Ashok Vihar, Delhi - DPCC",
      "last_update": "24-01-2025 08:00:00",
      "latitude": "28.695381",
      "longitude": "77.181665",
      "pollutant_id": "CO",
      "min_value": "3",
      "max_value": "66",
      "avg_value": "17"
    },
    {
      "country": "India",
      "state": "Chhattisgarh",
      "city": "Bhilai",
      "station": "Hathkhoj, Bhilai - CECB",
      "last_update": "24-01-2025 08:00:00",
      "latitude": "21.224231",
      "longitude": "81.408350",
      "pollutant_id": "CO",
      "min_value": "24",
      "max_value": "104",
      "avg_value": "96"
    },
    {
      "country": "India",
      "state": "Chhattisgarh",
      "city": "Chhal",
      "station": "Nawapara SECL Colony, Chhal - CECB",
      "last_update": "24-01-2025 08:00:00",
      "latitude": "22.118125",
      "longitude": "83.140608",
      "pollutant_id": "PM10",
      "min_value": "51",
      "max_value": "244",
      "avg_value": "91"
    },
    {
      "country": "India",
      "state": "Chhattisgarh",
      "city": "Chhal",
      "station": "Nawapara SECL Colony, Chhal - CECB",
      "last_update": "24-01-2025 08:00:00",
      "latitude": "22.118125",
      "longitude": "83.140608",
      "pollutant_id": "NH3",
      "min_value": "2",
      "max_value": "3",
      "avg_value": "3"
    },
    {
      "country": "India",
      "state": "Chhattisgarh",
      "city": "Kunjemura",
      "station": "OP Jindal School, Kunjemura - CECB",
      "last_update": "24-01-2025 08:00:00",
      "latitude": "22.126650",
      "longitude": "83.483212",
      "pollutant_id": "NH3",
      "min_value": "2",
      "max_value": "3",
      "avg_value": "2"
    },
    {
      "country": "India",
      "state": "Chhattisgarh",
      "city": "Tumidih",
      "station": "OP Jindal Industrial Park, Tumidih - CECB",
      "last_update": "24-01-2025 08:00:00",
      "latitude": "22.06631475",
      "longitude": "83.33820077",
      "pollutant_id": "NO2",
      "min_value": "30",
      "max_value": "96",
      "avg_value": "55"
    },
    {
      "country": "India",
      "state": "Delhi",
      "city": "Delhi",
      "station": "Alipur, Delhi - DPCC",
      "last_update": "24-01-2025 08:00:00",
      "latitude": "28.815329",
      "longitude": "77.153010",
      "pollutant_id": "PM2.5",
      "min_value": "63",
      "max_value": "321",
      "avg_value": "177"
    },
    {
      "country": "India",
      "state": "Delhi",
      "city": "Delhi",
      "station": "Alipur, Delhi - DPCC",
      "last_update": "24-01-2025 08:00:00",
      "latitude": "28.815329",
      "longitude": "77.153010",
      "pollutant_id": "NH3",
      "min_value": "7",
      "max_value": "12",
      "avg_value": "10"
    },
    {
      "country": "India",
      "state": "Delhi",
      "city": "Delhi",
      "station": "IHBAS, Dilshad Garden, Delhi - CPCB",
      "last_update": "24-01-2025 08:00:00",
      "latitude": "28.6811736",
      "longitude": "77.3025234",
      "pollutant_id": "CO",
      "min_value": "76",
      "max_value": "108",
      "avg_value": "108"
    },
    {
      "country": "India",
      "state": "Delhi",
      "city": "Delhi",
      "station": "ITO, Delhi - CPCB",
      "last_update": "24-01-2025 08:00:00",
      "latitude": "28.628624",
      "longitude": "77.241060",
      "pollutant_id": "CO",
      "min_value": "12",
      "max_value": "100",
      "avg_value": "30"
    },
    {
      "country": "India",
      "state": "Delhi",
      "city": "Delhi",
      "station": "Jahangirpuri, Delhi - DPCC",
      "last_update": "24-01-2025 08:00:00",
      "latitude": "28.732820",
      "longitude": "77.170633",
      "pollutant_id": "SO2",
      "min_value": "4",
      "max_value": "22",
      "avg_value": "11"
    },
    {
      "country": "India",
      "state": "Delhi",
      "city": "Delhi",
      "station": "DTU, Delhi - CPCB",
      "last_update": "24-01-2025 08:00:00",
      "latitude": "28.7500499",
      "longitude": "77.1112615",
      "pollutant_id": "PM10",
      "min_value": "81",
      "max_value": "240",
      "avg_value": "154"
    },
    {
      "country": "India",
      "state": "Delhi",
      "city": "Delhi",
      "station": "Dr. Karni Singh Shooting Range, Delhi - DPCC",
      "last_update": "24-01-2025 08:00:00",
      "latitude": "28.498571",
      "longitude": "77.264840",
      "pollutant_id": "CO",
      "min_value": "34",
      "max_value": "100",
      "avg_value": "57"
    },
    {
      "country": "India",
      "state": "Chandigarh",
      "city": "Chandigarh",
      "station": "Sector-53, Chandigarh - CPCC",
      "last_update": "24-01-2025 08:00:00",
      "latitude": "30.719859",
      "longitude": "76.738637",
      "pollutant_id": "PM10",
      "min_value": "58",
      "max_value": "136",
      "avg_value": "102"
    },
    {
      "country": "India",
      "state": "Chandigarh",
      "city": "Chandigarh",
      "station": "Sector-53, Chandigarh - CPCC",
      "last_update": "24-01-2025 08:00:00",
      "latitude": "30.719859",
      "longitude": "76.738637",
      "pollutant_id": "SO2",
      "min_value": "15",
      "max_value": "25",
      "avg_value": "20"
    },
    {
      "country": "India",
      "state": "Chhattisgarh",
      "city": "Raipur",
      "station": "Siltara Phase-II, Raipur - CECB",
      "last_update": "24-01-2025 08:00:00",
      "latitude": "21.371751",
      "longitude": "81.664929",
      "pollutant_id": "SO2",
      "min_value": "8",
      "max_value": "37",
      "avg_value": "15"
    },
    {
      "country": "India",
      "state": "Chhattisgarh",
      "city": "Raipur",
      "station": "Siltara Phase-II, Raipur - CECB",
      "last_update": "24-01-2025 08:00:00",
      "latitude": "21.371751",
      "longitude": "81.664929",
      "pollutant_id": "CO",
      "min_value": "45",
      "max_value": "69",
      "avg_value": "62"
    },
    {
      "country": "India",
      "state": "Chhattisgarh",
      "city": "Bhilai",
      "station": "32Bungalows, Bhilai - CECB",
      "last_update": "24-01-2025 08:00:00",
      "latitude": "21.194815",
      "longitude": "81.314770",
      "pollutant_id": "PM10",
      "min_value": "73",
      "max_value": "136",
      "avg_value": "106"
    },
    {
      "country": "India",
      "state": "Delhi",
      "city": "Delhi",
      "station": "Sonia Vihar, Delhi - DPCC",
      "last_update": "24-01-2025 08:00:00",
      "latitude": "28.710508",
      "longitude": "77.249485",
      "pollutant_id": "OZONE",
      "min_value": "4",
      "max_value": "97",
      "avg_value": "13"
    },
    {
      "country": "India",
      "state": "Delhi",
      "city": "Delhi",
      "station": "Sri Aurobindo Marg, Delhi - DPCC",
      "last_update": "24-01-2025 08:00:00",
      "latitude": "28.531346",
      "longitude": "77.190156",
      "pollutant_id": "NO2",
      "min_value": "25",
      "max_value": "95",
      "avg_value": "61"
    },
    {
      "country": "India",
      "state": "Delhi",
      "city": "Delhi",
      "station": "Vivek Vihar, Delhi - DPCC",
      "last_update": "24-01-2025 08:00:00",
      "latitude": "28.672342",
      "longitude": "77.315260",
      "pollutant_id": "NH3",
      "min_value": "10",
      "max_value": "14",
      "avg_value": "13"
    },
    {
      "country": "India",
      "state": "Delhi",
      "city": "Delhi",
      "station": "Vivek Vihar, Delhi - DPCC",
      "last_update": "24-01-2025 08:00:00",
      "latitude": "28.672342",
      "longitude": "77.315260",
      "pollutant_id": "OZONE",
      "min_value": "6",
      "max_value": "88",
      "avg_value": "18"
    },
    {
      "country": "India",
      "state": "Delhi",
      "city": "Delhi",
      "station": "Wazirpur, Delhi - DPCC",
      "last_update": "24-01-2025 08:00:00",
      "latitude": "28.699793",
      "longitude": "77.165453",
      "pollutant_id": "PM10",
      "min_value": "122",
      "max_value": "308",
      "avg_value": "174"
    },
    {
      "country": "India",
      "state": "Delhi",
      "city": "Delhi",
      "station": "Wazirpur, Delhi - DPCC",
      "last_update": "24-01-2025 08:00:00",
      "latitude": "28.699793",
      "longitude": "77.165453",
      "pollutant_id": "CO",
      "min_value": "8",
      "max_value": "105",
      "avg_value": "47"
    },
    {
      "country": "India",
      "state": "Delhi",
      "city": "Delhi",
      "station": "Jahangirpuri, Delhi - DPCC",
      "last_update": "24-01-2025 08:00:00",
      "latitude": "28.732820",
      "longitude": "77.170633",
      "pollutant_id": "OZONE",
      "min_value": "4",
      "max_value": "81",
      "avg_value": "7"
    },
    {
      "country": "India",
      "state": "Delhi",
      "city": "Delhi",
      "station": "Jawaharlal Nehru Stadium, Delhi - DPCC",
      "last_update": "24-01-2025 08:00:00",
      "latitude": "28.580280",
      "longitude": "77.233829",
      "pollutant_id": "NO2",
      "min_value": "40",
      "max_value": "146",
      "avg_value": "95"
    },
    {
      "country": "India",
      "state": "Delhi",
      "city": "Delhi",
      "station": "Jawaharlal Nehru Stadium, Delhi - DPCC",
      "last_update": "24-01-2025 08:00:00",
      "latitude": "28.580280",
      "longitude": "77.233829",
      "pollutant_id": "NH3",
      "min_value": "9",
      "max_value": "16",
      "avg_value": "12"
    },
    {
      "country": "India",
      "state": "Delhi",
      "city": "Delhi",
      "station": "Major Dhyan Chand National Stadium, Delhi - DPCC",
      "last_update": "24-01-2025 08:00:00",
      "latitude": "28.611281",
      "longitude": "77.237738",
      "pollutant_id": "PM2.5",
      "min_value": "60",
      "max_value": "352",
      "avg_value": "209"
    },
    {
      "country": "India",
      "state": "Delhi",
      "city": "Delhi",
      "station": "Mandir Marg, Delhi - DPCC",
      "last_update": "24-01-2025 08:00:00",
      "latitude": "28.636429",
      "longitude": "77.201067",
      "pollutant_id": "PM2.5",
      "min_value": "65",
      "max_value": "325",
      "avg_value": "184"
    },
    {
      "country": "India",
      "state": "Delhi",
      "city": "Delhi",
      "station": "Najafgarh, Delhi - DPCC",
      "last_update": "24-01-2025 08:00:00",
      "latitude": "28.570173",
      "longitude": "76.933762",
      "pollutant_id": "CO",
      "min_value": "28",
      "max_value": "61",
      "avg_value": "36"
    },
    {
      "country": "India",
      "state": "Delhi",
      "city": "Delhi",
      "station": "Narela, Delhi - DPCC",
      "last_update": "24-01-2025 08:00:00",
      "latitude": "28.822836",
      "longitude": "77.101981",
      "pollutant_id": "NO2",
      "min_value": "20",
      "max_value": "31",
      "avg_value": "27"
    },
    {
      "country": "India",
      "state": "Delhi",
      "city": "Delhi",
      "station": "Narela, Delhi - DPCC",
      "last_update": "24-01-2025 08:00:00",
      "latitude": "28.822836",
      "longitude": "77.101981",
      "pollutant_id": "NH3",
      "min_value": "8",
      "max_value": "10",
      "avg_value": "9"
    },
    {
      "country": "India",
      "state": "Delhi",
      "city": "Delhi",
      "station": "Nehru Nagar, Delhi - DPCC",
      "last_update": "24-01-2025 08:00:00",
      "latitude": "28.567890",
      "longitude": "77.250515",
      "pollutant_id": "PM2.5",
      "min_value": "57",
      "max_value": "386",
      "avg_value": "246"
    },
    {
      "country": "India",
      "state": "Delhi",
      "city": "Delhi",
      "station": "Nehru Nagar, Delhi - DPCC",
      "last_update": "24-01-2025 08:00:00",
      "latitude": "28.567890",
      "longitude": "77.250515",
      "pollutant_id": "OZONE",
      "min_value": "10",
      "max_value": "159",
      "avg_value": "22"
    },
    {
      "country": "India",
      "state": "Gujarat",
      "city": "Ahmedabad",
      "station": "Raikhad, Ahmedabad - IITM",
      "last_update": "24-01-2025 08:00:00",
      "latitude": "23.020509",
      "longitude": "72.579261",
      "pollutant_id": "CO",
      "min_value": "2",
      "max_value": "43",
      "avg_value": "24"
    },
    {
      "country": "India",
      "state": "Gujarat",
      "city": "Ahmedabad",
      "station": "Rakhial, Ahmedabad - IITM",
      "last_update": "24-01-2025 08:00:00",
      "latitude": "23.016834",
      "longitude": "72.625775",
      "pollutant_id": "NH3",
      "min_value": "2",
      "max_value": "3",
      "avg_value": "2"
    },
    {
      "country": "India",
      "state": "Gujarat",
      "city": "Ahmedabad",
      "station": "SAC ISRO Bopal, Ahmedabad - IITM",
      "last_update": "24-01-2025 08:00:00",
      "latitude": "23.041137",
      "longitude": "72.456691",
      "pollutant_id": "SO2",
      "min_value": "1",
      "max_value": "1",
      "avg_value": "1"
    },
    {
      "country": "India",
      "state": "Gujarat",
      "city": "Ahmedabad",
      "station": "SAC ISRO Satellite, Ahmedabad - IITM",
      "last_update": "24-01-2025 08:00:00",
      "latitude": "23.023389",
      "longitude": "72.515201",
      "pollutant_id": "SO2",
      "min_value": "8",
      "max_value": "72",
      "avg_value": "20"
    },
    {
      "country": "India",
      "state": "Delhi",
      "city": "Delhi",
      "station": "Rohini, Delhi - DPCC",
      "last_update": "24-01-2025 08:00:00",
      "latitude": "28.732528",
      "longitude": "77.119920",
      "pollutant_id": "PM10",
      "min_value": "75",
      "max_value": "244",
      "avg_value": "142"
    },
    {
      "country": "India",
      "state": "Delhi",
      "city": "Delhi",
      "station": "Rohini, Delhi - DPCC",
      "last_update": "24-01-2025 08:00:00",
      "latitude": "28.732528",
      "longitude": "77.119920",
      "pollutant_id": "NO2",
      "min_value": "29",
      "max_value": "100",
      "avg_value": "61"
    },
    {
      "country": "India",
      "state": "Delhi",
      "city": "Delhi",
      "station": "Shadipur, Delhi - CPCB",
      "last_update": "24-01-2025 08:00:00",
      "latitude": "28.6514781",
      "longitude": "77.1473105",
      "pollutant_id": "PM10",
      "min_value": "98",
      "max_value": "194",
      "avg_value": "124"
    },
    {
      "country": "India",
      "state": "Delhi",
      "city": "Delhi",
      "station": "Sirifort, Delhi - CPCB",
      "last_update": "24-01-2025 08:00:00",
      "latitude": "28.5504249",
      "longitude": "77.2159377",
      "pollutant_id": "OZONE",
      "min_value": "19",
      "max_value": "39",
      "avg_value": "19"
    },
    {
      "country": "India",
      "state": "Delhi",
      "city": "Delhi",
      "station": "Mandir Marg, Delhi - DPCC",
      "last_update": "24-01-2025 08:00:00",
      "latitude": "28.636429",
      "longitude": "77.201067",
      "pollutant_id": "OZONE",
      "min_value": "1",
      "max_value": "13",
      "avg_value": "7"
    },
    {
      "country": "India",
      "state": "Delhi",
      "city": "Delhi",
      "station": "Mundka, Delhi - DPCC",
      "last_update": "24-01-2025 08:00:00",
      "latitude": "28.684678",
      "longitude": "77.076574",
      "pollutant_id": "PM10",
      "min_value": "130",
      "max_value": "411",
      "avg_value": "202"
    },
    {
      "country": "India",
      "state": "Delhi",
      "city": "Delhi",
      "station": "NSIT Dwarka, Delhi - CPCB",
      "last_update": "24-01-2025 08:00:00",
      "latitude": "28.60909",
      "longitude": "77.0325413",
      "pollutant_id": "OZONE",
      "min_value": "13",
      "max_value": "35",
      "avg_value": "14"
    },
    {
      "country": "India",
      "state": "Gujarat",
      "city": "Ahmedabad",
      "station": "SVPI Airport Hansol, Ahmedabad - IITM",
      "last_update": "24-01-2025 08:00:00",
      "latitude": "23.076793",
      "longitude": "72.627874",
      "pollutant_id": "NH3",
      "min_value": "11",
      "max_value": "15",
      "avg_value": "12"
    },
    {
      "country": "India",
      "state": "Gujarat",
      "city": "Ahmedabad",
      "station": "Sardar Vallabhbhai Patel Stadium, Ahmedabad - IITM",
      "last_update": "24-01-2025 08:00:00",
      "latitude": "23.043070",
      "longitude": "72.562968",
      "pollutant_id": "CO",
      "min_value": "20",
      "max_value": "62",
      "avg_value": "22"
    },
    {
      "country": "India",
      "state": "Gujarat",
      "city": "Ahmedabad",
      "station": "Sardar Vallabhbhai Patel Stadium, Ahmedabad - IITM",
      "last_update": "24-01-2025 08:00:00",
      "latitude": "23.043070",
      "longitude": "72.562968",
      "pollutant_id": "OZONE",
      "min_value": "16",
      "max_value": "37",
      "avg_value": "19"
    },
    {
      "country": "India",
      "state": "Delhi",
      "city": "Delhi",
      "station": "Patparganj, Delhi - DPCC",
      "last_update": "24-01-2025 08:00:00",
      "latitude": "28.623763",
      "longitude": "77.287209",
      "pollutant_id": "NH3",
      "min_value": "7",
      "max_value": "16",
      "avg_value": "10"
    },
    {
      "country": "India",
      "state": "Delhi",
      "city": "Delhi",
      "station": "R K Puram, Delhi - DPCC",
      "last_update": "24-01-2025 08:00:00",
      "latitude": "28.563262",
      "longitude": "77.186937",
      "pollutant_id": "PM2.5",
      "min_value": "58",
      "max_value": "388",
      "avg_value": "225"
    },
    {
      "country": "India",
      "state": "Delhi",
      "city": "Delhi",
      "station": "R K Puram, Delhi - DPCC",
      "last_update": "24-01-2025 08:00:00",
      "latitude": "28.563262",
      "longitude": "77.186937",
      "pollutant_id": "PM10",
      "min_value": "101",
      "max_value": "284",
      "avg_value": "154"
    },
    {
      "country": "India",
      "state": "Gujarat",
      "city": "Ahmedabad",
      "station": "Gyaspur, Ahmedabad - IITM",
      "last_update": "24-01-2025 08:00:00",
      "latitude": "22.977134",
      "longitude": "72.553024",
      "pollutant_id": "NO2",
      "min_value": "43",
      "max_value": "79",
      "avg_value": "59"
    },
    {
      "country": "India",
      "state": "Gujarat",
      "city": "Ahmedabad",
      "station": "Gyaspur, Ahmedabad - IITM",
      "last_update": "24-01-2025 08:00:00",
      "latitude": "22.977134",
      "longitude": "72.553024",
      "pollutant_id": "OZONE",
      "min_value": "3",
      "max_value": "77",
      "avg_value": "23"
    },
    {
      "country": "India",
      "state": "Haryana",
      "city": "Faridabad",
      "station": "Sector 30, Faridabad - HSPCB",
      "last_update": "24-01-2025 08:00:00",
      "latitude": "28.4417",
      "longitude": "77.3217",
      "pollutant_id": "OZONE",
      "min_value": "17",
      "max_value": "19",
      "avg_value": "19"
    },
    {
      "country": "India",
      "state": "Haryana",
      "city": "Gurugram",
      "station": "Sector-51, Gurugram - HSPCB",
      "last_update": "24-01-2025 08:00:00",
      "latitude": "28.4227",
      "longitude": "77.0667",
      "pollutant_id": "SO2",
      "min_value": "1",
      "max_value": "107",
      "avg_value": "43"
    },
    {
      "country": "India",
      "state": "Haryana",
      "city": "Gurugram",
      "station": "Sector-51, Gurugram - HSPCB",
      "last_update": "24-01-2025 08:00:00",
      "latitude": "28.4227",
      "longitude": "77.0667",
      "pollutant_id": "CO",
      "min_value": "1",
      "max_value": "56",
      "avg_value": "35"
    },
    {
      "country": "India",
      "state": "Haryana",
      "city": "Gurugram",
      "station": "Teri Gram, Gurugram - HSPCB",
      "last_update": "24-01-2025 08:00:00",
      "latitude": "28.4275",
      "longitude": "77.1465",
      "pollutant_id": "PM2.5",
      "min_value": "83",
      "max_value": "307",
      "avg_value": "192"
    },
    {
      "country": "India",
      "state": "Haryana",
      "city": "Gurugram",
      "station": "Teri Gram, Gurugram - HSPCB",
      "last_update": "24-01-2025 08:00:00",
      "latitude": "28.4275",
      "longitude": "77.1465",
      "pollutant_id": "NH3",
      "min_value": "8",
      "max_value": "17",
      "avg_value": "14"
    },
    {
      "country": "India",
      "state": "Haryana",
      "city": "Gurugram",
      "station": "Teri Gram, Gurugram - HSPCB",
      "last_update": "24-01-2025 08:00:00",
      "latitude": "28.4275",
      "longitude": "77.1465",
      "pollutant_id": "SO2",
      "min_value": "NA",
      "max_value": "NA",
      "avg_value": "NA"
    },
    {
      "country": "India",
      "state": "Haryana",
      "city": "Gurugram",
      "station": "Teri Gram, Gurugram - HSPCB",
      "last_update": "24-01-2025 08:00:00",
      "latitude": "28.4275",
      "longitude": "77.1465",
      "pollutant_id": "CO",
      "min_value": "NA",
      "max_value": "NA",
      "avg_value": "NA"
    },
    {
      "country": "India",
      "state": "Haryana",
      "city": "Gurugram",
      "station": "Vikas Sadan, Gurugram - HSPCB",
      "last_update": "24-01-2025 08:00:00",
      "latitude": "28.4501238",
      "longitude": "77.0263051",
      "pollutant_id": "PM10",
      "min_value": "50",
      "max_value": "147",
      "avg_value": "86"
    },
    {
      "country": "India",
      "state": "Haryana",
      "city": "Panchgaon",
      "station": "Amity University, Panchgaon - IITM",
      "last_update": "24-01-2025 08:00:00",
      "latitude": "28.3153",
      "longitude": "76.9143",
      "pollutant_id": "NO2",
      "min_value": "37",
      "max_value": "52",
      "avg_value": "45"
    },
    {
      "country": "India",
      "state": "Haryana",
      "city": "Panchgaon",
      "station": "Amity University, Panchgaon - IITM",
      "last_update": "24-01-2025 08:00:00",
      "latitude": "28.3153",
      "longitude": "76.9143",
      "pollutant_id": "NH3",
      "min_value": "3",
      "max_value": "5",
      "avg_value": "4"
    },
    {
      "country": "India",
      "state": "Karnataka",
      "city": "Bengaluru",
      "station": "Hebbal, Bengaluru - KSPCB",
      "last_update": "24-01-2025 08:00:00",
      "latitude": "13.029152",
      "longitude": "77.585901",
      "pollutant_id": "NO2",
      "min_value": "45",
      "max_value": "57",
      "avg_value": "53"
    },
    {
      "country": "India",
      "state": "Karnataka",
      "city": "Bengaluru",
      "station": "Hebbal, Bengaluru - KSPCB",
      "last_update": "24-01-2025 08:00:00",
      "latitude": "13.029152",
      "longitude": "77.585901",
      "pollutant_id": "CO",
      "min_value": "4",
      "max_value": "38",
      "avg_value": "15"
    },
    {
      "country": "India",
      "state": "Karnataka",
      "city": "Bengaluru",
      "station": "Hebbal, Bengaluru - KSPCB",
      "last_update": "24-01-2025 08:00:00",
      "latitude": "13.029152",
      "longitude": "77.585901",
      "pollutant_id": "OZONE",
      "min_value": "4",
      "max_value": "21",
      "avg_value": "5"
    },
    {
      "country": "India",
      "state": "Karnataka",
      "city": "Bengaluru",
      "station": "Hombegowda Nagar, Bengaluru - KSPCB",
      "last_update": "24-01-2025 08:00:00",
      "latitude": "12.938539",
      "longitude": "77.590100",
      "pollutant_id": "NH3",
      "min_value": "2",
      "max_value": "5",
      "avg_value": "2"
    },
    {
      "country": "India",
      "state": "Karnataka",
      "city": "Bengaluru",
      "station": "Hombegowda Nagar, Bengaluru - KSPCB",
      "last_update": "24-01-2025 08:00:00",
      "latitude": "12.938539",
      "longitude": "77.590100",
      "pollutant_id": "SO2",
      "min_value": "14",
      "max_value": "20",
      "avg_value": "16"
    },
    {
      "country": "India",
      "state": "Karnataka",
      "city": "Bengaluru",
      "station": "Jayanagar 5th Block, Bengaluru - KSPCB",
      "last_update": "24-01-2025 08:00:00",
      "latitude": "12.920984",
      "longitude": "77.584908",
      "pollutant_id": "CO",
      "min_value": "2",
      "max_value": "62",
      "avg_value": "6"
    },
    {
      "country": "India",
      "state": "Karnataka",
      "city": "Bengaluru",
      "station": "Jayanagar 5th Block, Bengaluru - KSPCB",
      "last_update": "24-01-2025 08:00:00",
      "latitude": "12.920984",
      "longitude": "77.584908",
      "pollutant_id": "OZONE",
      "min_value": "10",
      "max_value": "15",
      "avg_value": "14"
    },
    {
      "country": "India",
      "state": "Karnataka",
      "city": "Bengaluru",
      "station": "Jigani, Bengaluru - KSPCB",
      "last_update": "24-01-2025 08:00:00",
      "latitude": "12.7816279",
      "longitude": "77.6299145",
      "pollutant_id": "PM2.5",
      "min_value": "8",
      "max_value": "220",
      "avg_value": "93"
    },
    {
      "country": "India",
      "state": "Karnataka",
      "city": "Bagalkot",
      "station": "Vidayagiri, Bagalkot - KSPCB",
      "last_update": "24-01-2025 08:00:00",
      "latitude": "16.172806",
      "longitude": "75.659694",
      "pollutant_id": "NH3",
      "min_value": "1",
      "max_value": "2",
      "avg_value": "1"
    },
    {
      "country": "India",
      "state": "Karnataka",
      "city": "Bengaluru",
      "station": "BTM Layout, Bengaluru - CPCB",
      "last_update": "24-01-2025 08:00:00",
      "latitude": "12.9135218",
      "longitude": "77.5950804",
      "pollutant_id": "NO2",
      "min_value": "41",
      "max_value": "69",
      "avg_value": "62"
    },
    {
      "country": "India",
      "state": "Karnataka",
      "city": "Bengaluru",
      "station": "BTM Layout, Bengaluru - CPCB",
      "last_update": "24-01-2025 08:00:00",
      "latitude": "12.9135218",
      "longitude": "77.5950804",
      "pollutant_id": "NH3",
      "min_value": "3",
      "max_value": "4",
      "avg_value": "4"
    },
    {
      "country": "India",
      "state": "Karnataka",
      "city": "Bengaluru",
      "station": "Bapuji Nagar, Bengaluru - KSPCB",
      "last_update": "24-01-2025 08:00:00",
      "latitude": "12.951913",
      "longitude": "77.539784",
      "pollutant_id": "PM10",
      "min_value": "68",
      "max_value": "120",
      "avg_value": "91"
    },
    {
      "country": "India",
      "state": "Karnataka",
      "city": "Bengaluru",
      "station": "Bapuji Nagar, Bengaluru - KSPCB",
      "last_update": "24-01-2025 08:00:00",
      "latitude": "12.951913",
      "longitude": "77.539784",
      "pollutant_id": "NO2",
      "min_value": "15",
      "max_value": "16",
      "avg_value": "15"
    },
    {
      "country": "India",
      "state": "Karnataka",
      "city": "Bengaluru",
      "station": "City Railway Station, Bengaluru - KSPCB",
      "last_update": "24-01-2025 08:00:00",
      "latitude": "12.9756843",
      "longitude": "77.5660749",
      "pollutant_id": "PM10",
      "min_value": "38",
      "max_value": "104",
      "avg_value": "73"
    },
    {
      "country": "India",
      "state": "Gujarat",
      "city": "Vatva",
      "station": "Phase-4 GIDC, Vatva - GPCB",
      "last_update": "24-01-2025 08:00:00",
      "latitude": "22.969611",
      "longitude": "72.643500",
      "pollutant_id": "SO2",
      "min_value": "50",
      "max_value": "62",
      "avg_value": "56"
    },
    {
      "country": "India",
      "state": "Gujarat",
      "city": "Vatva",
      "station": "Phase-4 GIDC, Vatva - GPCB",
      "last_update": "24-01-2025 08:00:00",
      "latitude": "22.969611",
      "longitude": "72.643500",
      "pollutant_id": "OZONE",
      "min_value": "29",
      "max_value": "30",
      "avg_value": "29"
    },
    {
      "country": "India",
      "state": "Haryana",
      "city": "Charkhi Dadri",
      "station": "Mini Secretariat, Charkhi Dadri - HSPCB",
      "last_update": "24-01-2025 08:00:00",
      "latitude": "28.593883",
      "longitude": "76.270653",
      "pollutant_id": "OZONE",
      "min_value": "13",
      "max_value": "17",
      "avg_value": "15"
    },
    {
      "country": "India",
      "state": "Haryana",
      "city": "Faridabad",
      "station": "Sector 11, Faridabad - HSPCB",
      "last_update": "24-01-2025 08:00:00",
      "latitude": "28.376058",
      "longitude": "77.315741",
      "pollutant_id": "SO2",
      "min_value": "8",
      "max_value": "9",
      "avg_value": "8"
    },
    {
      "country": "India",
      "state": "Haryana",
      "city": "Panchgaon",
      "station": "Amity University, Panchgaon - IITM",
      "last_update": "24-01-2025 08:00:00",
      "latitude": "28.3153",
      "longitude": "76.9143",
      "pollutant_id": "SO2",
      "min_value": "4",
      "max_value": "16",
      "avg_value": "11"
    },
    {
      "country": "India",
      "state": "Haryana",
      "city": "Panchkula",
      "station": "Sector-6, Panchkula - HSPCB ",
      "last_update": "24-01-2025 08:00:00",
      "latitude": "30.7057778",
      "longitude": "76.8531805555555",
      "pollutant_id": "CO",
      "min_value": "15",
      "max_value": "27",
      "avg_value": "26"
    },
    {
      "country": "India",
      "state": "Haryana",
      "city": "Rohtak",
      "station": "MD University, Rohtak - HSPCB",
      "last_update": "24-01-2025 08:00:00",
      "latitude": "28.52123",
      "longitude": "76.37138",
      "pollutant_id": "NO2",
      "min_value": "32",
      "max_value": "39",
      "avg_value": "35"
    },
    {
      "country": "India",
      "state": "Himachal Pradesh",
      "city": "Baddi",
      "station": "HIMUDA Complex Phase-1, Baddi - HPPCB",
      "last_update": "24-01-2025 08:00:00",
      "latitude": "30.943887",
      "longitude": "76.801991",
      "pollutant_id": "NO2",
      "min_value": "19",
      "max_value": "77",
      "avg_value": "41"
    },
    {
      "country": "India",
      "state": "Jharkhand",
      "city": "Dhanbad",
      "station": "Sardar Patel Nagar, Dhanbad - JSPCB",
      "last_update": "24-01-2025 08:00:00",
      "latitude": "23.80569",
      "longitude": "86.44268",
      "pollutant_id": "NO2",
      "min_value": "84",
      "max_value": "100",
      "avg_value": "86"
    },
    {
      "country": "India",
      "state": "Gujarat",
      "city": "Gandhinagar",
      "station": "Sector-10, Gandhinagar - GPCB",
      "last_update": "24-01-2025 08:00:00",
      "latitude": "23.221714",
      "longitude": "72.654328",
      "pollutant_id": "OZONE",
      "min_value": "22",
      "max_value": "23",
      "avg_value": "22"
    },
    {
      "country": "India",
      "state": "Gujarat",
      "city": "Gandhinagar",
      "station": "IIPHG Lekawada, Gandhinagar - IITM",
      "last_update": "24-01-2025 08:00:00",
      "latitude": "23.243639",
      "longitude": "72.68994",
      "pollutant_id": "SO2",
      "min_value": "3",
      "max_value": "4",
      "avg_value": "4"
    },
    {
      "country": "India",
      "state": "Gujarat",
      "city": "Vatva",
      "station": "Phase-4 GIDC, Vatva - GPCB",
      "last_update": "24-01-2025 08:00:00",
      "latitude": "22.969611",
      "longitude": "72.643500",
      "pollutant_id": "NH3",
      "min_value": "3",
      "max_value": "9",
      "avg_value": "4"
    },
    {
      "country": "India",
      "state": "Karnataka",
      "city": "Bengaluru",
      "station": "Peenya, Bengaluru - CPCB",
      "last_update": "24-01-2025 08:00:00",
      "latitude": "13.0270199",
      "longitude": "77.494094",
      "pollutant_id": "SO2",
      "min_value": "8",
      "max_value": "11",
      "avg_value": "10"
    },
    {
      "country": "India",
      "state": "Karnataka",
      "city": "Bengaluru",
      "station": "RVCE-Mailasandra, Bengaluru - KSPCB",
      "last_update": "24-01-2025 08:00:00",
      "latitude": "12.921418",
      "longitude": "77.502466",
      "pollutant_id": "CO",
      "min_value": "28",
      "max_value": "46",
      "avg_value": "34"
    },
    {
      "country": "India",
      "state": "Karnataka",
      "city": "Bengaluru",
      "station": "RVCE-Mailasandra, Bengaluru - KSPCB",
      "last_update": "24-01-2025 08:00:00",
      "latitude": "12.921418",
      "longitude": "77.502466",
      "pollutant_id": "OZONE",
      "min_value": "21",
      "max_value": "23",
      "avg_value": "23"
    },
    {
      "country": "India",
      "state": "Karnataka",
      "city": "Bengaluru",
      "station": "Shivapura_Peenya, Bengaluru - KSPCB",
      "last_update": "24-01-2025 08:00:00",
      "latitude": "13.0246342",
      "longitude": "77.5080115",
      "pollutant_id": "PM2.5",
      "min_value": "32",
      "max_value": "88",
      "avg_value": "50"
    },
    {
      "country": "India",
      "state": "Karnataka",
      "city": "Bengaluru",
      "station": "Shivapura_Peenya, Bengaluru - KSPCB",
      "last_update": "24-01-2025 08:00:00",
      "latitude": "13.0246342",
      "longitude": "77.5080115",
      "pollutant_id": "PM10",
      "min_value": "29",
      "max_value": "105",
      "avg_value": "82"
    },
    {
      "country": "India",
      "state": "Karnataka",
      "city": "Bengaluru",
      "station": "Shivapura_Peenya, Bengaluru - KSPCB",
      "last_update": "24-01-2025 08:00:00",
      "latitude": "13.0246342",
      "longitude": "77.5080115",
      "pollutant_id": "NH3",
      "min_value": "NA",
      "max_value": "NA",
      "avg_value": "NA"
    },
    {
      "country": "India",
      "state": "Karnataka",
      "city": "Bengaluru",
      "station": "Silk Board, Bengaluru - KSPCB",
      "last_update": "24-01-2025 08:00:00",
      "latitude": "12.917348",
      "longitude": "77.622813",
      "pollutant_id": "PM10",
      "min_value": "75",
      "max_value": "146",
      "avg_value": "104"
    },
    {
      "country": "India",
      "state": "Karnataka",
      "city": "Hubballi",
      "station": "Lingaraj Nagar, Hubballi - KSPCB",
      "last_update": "24-01-2025 08:00:00",
      "latitude": "15.3714823",
      "longitude": "75.1160168",
      "pollutant_id": "PM10",
      "min_value": "40",
      "max_value": "51",
      "avg_value": "47"
    },
    {
      "country": "India",
      "state": "Karnataka",
      "city": "Hubballi",
      "station": "Lingaraj Nagar, Hubballi - KSPCB",
      "last_update": "24-01-2025 08:00:00",
      "latitude": "15.3714823",
      "longitude": "75.1160168",
      "pollutant_id": "CO",
      "min_value": "29",
      "max_value": "109",
      "avg_value": "43"
    },
    {
      "country": "India",
      "state": "Karnataka",
      "city": "Kalaburagi",
      "station": "Mahatma Basaveswar Colony, Kalaburgi - KSPCB",
      "last_update": "24-01-2025 08:00:00",
      "latitude": "17.336318",
      "longitude": "76.847397",
      "pollutant_id": "PM10",
      "min_value": "65",
      "max_value": "140",
      "avg_value": "103"
    },
    {
      "country": "India",
      "state": "Karnataka",
      "city": "Kalaburagi",
      "station": "Mahatma Basaveswar Colony, Kalaburgi - KSPCB",
      "last_update": "24-01-2025 08:00:00",
      "latitude": "17.336318",
      "longitude": "76.847397",
      "pollutant_id": "SO2",
      "min_value": "2",
      "max_value": "3",
      "avg_value": "3"
    },
    {
      "country": "India",
      "state": "Karnataka",
      "city": "Bengaluru",
      "station": "Jigani, Bengaluru - KSPCB",
      "last_update": "24-01-2025 08:00:00",
      "latitude": "12.7816279",
      "longitude": "77.6299145",
      "pollutant_id": "SO2",
      "min_value": "14",
      "max_value": "15",
      "avg_value": "15"
    },
    {
      "country": "India",
      "state": "Karnataka",
      "city": "Bengaluru",
      "station": "Kasturi Nagar, Bengaluru - KSPCB",
      "last_update": "24-01-2025 08:00:00",
      "latitude": "13.003872",
      "longitude": "77.664217",
      "pollutant_id": "NO2",
      "min_value": "NA",
      "max_value": "NA",
      "avg_value": "NA"
    },
    {
      "country": "India",
      "state": "Karnataka",
      "city": "Davanagere",
      "station": "Devaraj Urs Badavane, Davanagere - KSPCB",
      "last_update": "24-01-2025 08:00:00",
      "latitude": "14.475800",
      "longitude": "75.905200",
      "pollutant_id": "NO2",
      "min_value": "11",
      "max_value": "16",
      "avg_value": "12"
    },
    {
      "country": "India",
      "state": "Karnataka",
      "city": "Davanagere",
      "station": "Devaraj Urs Badavane, Davanagere - KSPCB",
      "last_update": "24-01-2025 08:00:00",
      "latitude": "14.475800",
      "longitude": "75.905200",
      "pollutant_id": "NH3",
      "min_value": "2",
      "max_value": "2",
      "avg_value": "2"
    },
    {
      "country": "India",
      "state": "Karnataka",
      "city": "Hassan",
      "station": "B.Katihalli, Hassan - KSPCB",
      "last_update": "24-01-2025 08:00:00",
      "latitude": "13.008556",
      "longitude": "76.125258",
      "pollutant_id": "PM2.5",
      "min_value": "15",
      "max_value": "260",
      "avg_value": "63"
    },
    {
      "country": "India",
      "state": "Karnataka",
      "city": "Hassan",
      "station": "B.Katihalli, Hassan - KSPCB",
      "last_update": "24-01-2025 08:00:00",
      "latitude": "13.008556",
      "longitude": "76.125258",
      "pollutant_id": "CO",
      "min_value": "2",
      "max_value": "4",
      "avg_value": "2"
    },
    {
      "country": "India",
      "state": "Karnataka",
      "city": "Chikkamagaluru",
      "station": "Kalyana Nagara, Chikkamagaluru - KSPCB",
      "last_update": "24-01-2025 08:00:00",
      "latitude": "13.328028",
      "longitude": "75.797056",
      "pollutant_id": "NO2",
      "min_value": "17",
      "max_value": "27",
      "avg_value": "19"
    },
    {
      "country": "India",
      "state": "Karnataka",
      "city": "Chamarajanagar",
      "station": "Urban, Chamarajanagar - KSPCB",
      "last_update": "24-01-2025 08:00:00",
      "latitude": "11.55358",
      "longitude": "76.55521",
      "pollutant_id": "PM2.5",
      "min_value": "20",
      "max_value": "41",
      "avg_value": "30"
    },
    {
      "country": "India",
      "state": "Karnataka",
      "city": "Kolar",
      "station": "Tamaka Ind. Area, Kolar - KSPCB",
      "last_update": "24-01-2025 08:00:00",
      "latitude": "13.1276288",
      "longitude": "78.1570122",
      "pollutant_id": "PM2.5",
      "min_value": "NA",
      "max_value": "NA",
      "avg_value": "NA"
    },
    {
      "country": "India",
      "state": "Karnataka",
      "city": "Bengaluru",
      "station": "Peenya, Bengaluru - CPCB",
      "last_update": "24-01-2025 08:00:00",
      "latitude": "13.0270199",
      "longitude": "77.494094",
      "pollutant_id": "PM10",
      "min_value": "33",
      "max_value": "102",
      "avg_value": "77"
    },
    {
      "country": "India",
      "state": "Kerala",
      "city": "Kollam",
      "station": "Polayathode, Kollam - Kerala PCB",
      "last_update": "24-01-2025 08:00:00",
      "latitude": "8.8787",
      "longitude": "76.6073",
      "pollutant_id": "NO2",
      "min_value": "8",
      "max_value": "11",
      "avg_value": "9"
    },
    {
      "country": "India",
      "state": "Kerala",
      "city": "Thiruvananthapuram",
      "station": "Kariavattom, Thiruvananthapuram - Kerala PCB",
      "last_update": "24-01-2025 08:00:00",
      "latitude": "8.563700",
      "longitude": "76.886500",
      "pollutant_id": "PM2.5",
      "min_value": "32",
      "max_value": "40",
      "avg_value": "34"
    },
    {
      "country": "India",
      "state": "Kerala",
      "city": "Thiruvananthapuram",
      "station": "Kariavattom, Thiruvananthapuram - Kerala PCB",
      "last_update": "24-01-2025 08:00:00",
      "latitude": "8.563700",
      "longitude": "76.886500",
      "pollutant_id": "SO2",
      "min_value": "2",
      "max_value": "21",
      "avg_value": "11"
    },
    {
      "country": "India",
      "state": "Kerala",
      "city": "Thiruvananthapuram",
      "station": "Plammoodu, Thiruvananthapuram - Kerala PCB",
      "last_update": "24-01-2025 08:00:00",
      "latitude": "8.5149093",
      "longitude": "76.9435879",
      "pollutant_id": "PM10",
      "min_value": "37",
      "max_value": "91",
      "avg_value": "62"
    },
    {
      "country": "India",
      "state": "Kerala",
      "city": "Thiruvananthapuram",
      "station": "Plammoodu, Thiruvananthapuram - Kerala PCB",
      "last_update": "24-01-2025 08:00:00",
      "latitude": "8.5149093",
      "longitude": "76.9435879",
      "pollutant_id": "NO2",
      "min_value": "10",
      "max_value": "24",
      "avg_value": "17"
    },
    {
      "country": "India",
      "state": "Karnataka",
      "city": "Madikeri",
      "station": "Stuart Hill, Madikeri - KSPCB",
      "last_update": "24-01-2025 08:00:00",
      "latitude": "12.415911",
      "longitude": "75.735050",
      "pollutant_id": "NO2",
      "min_value": "1",
      "max_value": "1",
      "avg_value": "1"
    },
    {
      "country": "India",
      "state": "Karnataka",
      "city": "Mangalore",
      "station": "Kadri, Mangalore - KSPCB",
      "last_update": "24-01-2025 08:00:00",
      "latitude": "12.889250",
      "longitude": "74.853000",
      "pollutant_id": "OZONE",
      "min_value": "24",
      "max_value": "24",
      "avg_value": "24"
    },
    {
      "country": "India",
      "state": "Karnataka",
      "city": "Mysuru",
      "station": "Hebbal 1st Stage, Mysuru - KSPCB",
      "last_update": "24-01-2025 08:00:00",
      "latitude": "12.21041",
      "longitude": "76.37376",
      "pollutant_id": "PM2.5",
      "min_value": "33",
      "max_value": "56",
      "avg_value": "42"
    },
    {
      "country": "India",
      "state": "Karnataka",
      "city": "Mysuru",
      "station": "Hebbal 1st Stage, Mysuru - KSPCB",
      "last_update": "24-01-2025 08:00:00",
      "latitude": "12.21041",
      "longitude": "76.37376",
      "pollutant_id": "NO2",
      "min_value": "6",
      "max_value": "30",
      "avg_value": "20"
    },
    {
      "country": "India",
      "state": "Karnataka",
      "city": "Yadgir",
      "station": "Collector Office, Yadgir - KSPCB",
      "last_update": "24-01-2025 08:00:00",
      "latitude": "16.7602",
      "longitude": "77.1428",
      "pollutant_id": "CO",
      "min_value": "18",
      "max_value": "32",
      "avg_value": "32"
    },
    {
      "country": "India",
      "state": "Kerala",
      "city": "Eloor",
      "station": "Udyogamandal, Eloor - Kerala PCB",
      "last_update": "24-01-2025 08:00:00",
      "latitude": "10.073232",
      "longitude": "76.302765",
      "pollutant_id": "SO2",
      "min_value": "3",
      "max_value": "3",
      "avg_value": "3"
    },
    {
      "country": "India",
      "state": "Kerala",
      "city": "Kannur",
      "station": "Thavakkara, Kannur - Kerala PCB",
      "last_update": "24-01-2025 08:00:00",
      "latitude": "11.875000",
      "longitude": "75.373200",
      "pollutant_id": "NO2",
      "min_value": "10",
      "max_value": "12",
      "avg_value": "11"
    },
    {
      "country": "India",
      "state": "Madhya Pradesh",
      "city": "Gwalior",
      "station": "Deen Dayal Nagar, Gwalior - MPPCB",
      "last_update": "24-01-2025 08:00:00",
      "latitude": "26.259242",
      "longitude": "78.216432",
      "pollutant_id": "PM2.5",
      "min_value": "68",
      "max_value": "227",
      "avg_value": "109"
    },
    {
      "country": "India",
      "state": "Madhya Pradesh",
      "city": "Gwalior",
      "station": "Deen Dayal Nagar, Gwalior - MPPCB",
      "last_update": "24-01-2025 08:00:00",
      "latitude": "26.259242",
      "longitude": "78.216432",
      "pollutant_id": "NO2",
      "min_value": "12",
      "max_value": "36",
      "avg_value": "19"
    },
    {
      "country": "India",
      "state": "Madhya Pradesh",
      "city": "Gwalior",
      "station": "Deen Dayal Nagar, Gwalior - MPPCB",
      "last_update": "24-01-2025 08:00:00",
      "latitude": "26.259242",
      "longitude": "78.216432",
      "pollutant_id": "CO",
      "min_value": "36",
      "max_value": "78",
      "avg_value": "52"
    },
    {
      "country": "India",
      "state": "Madhya Pradesh",
      "city": "Gwalior",
      "station": "Deen Dayal Nagar, Gwalior - MPPCB",
      "last_update": "24-01-2025 08:00:00",
      "latitude": "26.259242",
      "longitude": "78.216432",
      "pollutant_id": "OZONE",
      "min_value": "26",
      "max_value": "132",
      "avg_value": "51"
    },
    {
      "country": "India",
      "state": "Kerala",
      "city": "Thiruvananthapuram",
      "station": "Plammoodu, Thiruvananthapuram - Kerala PCB",
      "last_update": "24-01-2025 08:00:00",
      "latitude": "8.5149093",
      "longitude": "76.9435879",
      "pollutant_id": "NH3",
      "min_value": "4",
      "max_value": "8",
      "avg_value": "6"
    },
    {
      "country": "India",
      "state": "Kerala",
      "city": "Thrissur",
      "station": "Corporation Ground, Thrissur - Kerala PCB",
      "last_update": "24-01-2025 08:00:00",
      "latitude": "10.532400",
      "longitude": "76.215900",
      "pollutant_id": "PM10",
      "min_value": "52",
      "max_value": "61",
      "avg_value": "57"
    },
    {
      "country": "India",
      "state": "Madhya Pradesh",
      "city": "Dewas",
      "station": "Bhopal Chauraha, Dewas - MPPCB",
      "last_update": "24-01-2025 08:00:00",
      "latitude": "22.9682591",
      "longitude": "76.064118",
      "pollutant_id": "CO",
      "min_value": "16",
      "max_value": "54",
      "avg_value": "20"
    },
    {
      "country": "India",
      "state": "Madhya Pradesh",
      "city": "Gwalior",
      "station": "City Center, Gwalior - MPPCB",
      "last_update": "24-01-2025 08:00:00",
      "latitude": "26.203442",
      "longitude": "78.193251",
      "pollutant_id": "PM2.5",
      "min_value": "54",
      "max_value": "251",
      "avg_value": "107"
    },
    {
      "country": "India",
      "state": "Karnataka",
      "city": "Ramanagara",
      "station": "Vijay Nagar, Ramanagara - KSPCB",
      "last_update": "24-01-2025 08:00:00",
      "latitude": "12.733409",
      "longitude": "77.298051",
      "pollutant_id": "PM10",
      "min_value": "25",
      "max_value": "117",
      "avg_value": "60"
    },
    {
      "country": "India",
      "state": "Karnataka",
      "city": "Ramanagara",
      "station": "Vijay Nagar, Ramanagara - KSPCB",
      "last_update": "24-01-2025 08:00:00",
      "latitude": "12.733409",
      "longitude": "77.298051",
      "pollutant_id": "NH3",
      "min_value": "NA",
      "max_value": "NA",
      "avg_value": "NA"
    },
    {
      "country": "India",
      "state": "Madhya Pradesh",
      "city": "Bhopal",
      "station": "Paryavaran Parisar, Bhopal - MPPCB",
      "last_update": "24-01-2025 08:00:00",
      "latitude": "23.210494",
      "longitude": "77.425409",
      "pollutant_id": "PM2.5",
      "min_value": "60",
      "max_value": "187",
      "avg_value": "120"
    },
    {
      "country": "India",
      "state": "Madhya Pradesh",
      "city": "Bhopal",
      "station": "T T Nagar, Bhopal - MPPCB",
      "last_update": "24-01-2025 08:00:00",
      "latitude": "23.233584",
      "longitude": "77.400574",
      "pollutant_id": "NH3",
      "min_value": "17",
      "max_value": "21",
      "avg_value": "18"
    },
    {
      "country": "India",
      "state": "Madhya Pradesh",
      "city": "Indore",
      "station": "Maguda Nagar, Indore - IMC",
      "last_update": "24-01-2025 08:00:00",
      "latitude": "22.7524",
      "longitude": "75.8872",
      "pollutant_id": "SO2",
      "min_value": "30",
      "max_value": "41",
      "avg_value": "36"
    },
    {
      "country": "India",
      "state": "Madhya Pradesh",
      "city": "Indore",
      "station": "Regional Park, Indore - IMC",
      "last_update": "24-01-2025 08:00:00",
      "latitude": "22.6780",
      "longitude": "75.8559",
      "pollutant_id": "OZONE",
      "min_value": "5",
      "max_value": "21",
      "avg_value": "10"
    },
    {
      "country": "India",
      "state": "Madhya Pradesh",
      "city": "Indore",
      "station": "Residency Area, Indore - IMC",
      "last_update": "24-01-2025 08:00:00",
      "latitude": "22.7084",
      "longitude": "75.8815",
      "pollutant_id": "PM2.5",
      "min_value": "46",
      "max_value": "161",
      "avg_value": "69"
    },
    {
      "country": "India",
      "state": "Madhya Pradesh",
      "city": "Indore",
      "station": "Residency Area, Indore - IMC",
      "last_update": "24-01-2025 08:00:00",
      "latitude": "22.7084",
      "longitude": "75.8815",
      "pollutant_id": "NO2",
      "min_value": "9",
      "max_value": "16",
      "avg_value": "12"
    },
    {
      "country": "India",
      "state": "Madhya Pradesh",
      "city": "Indore",
      "station": "Residency Area, Indore - IMC",
      "last_update": "24-01-2025 08:00:00",
      "latitude": "22.7084",
      "longitude": "75.8815",
      "pollutant_id": "SO2",
      "min_value": "26",
      "max_value": "45",
      "avg_value": "30"
    },
    {
      "country": "India",
      "state": "Madhya Pradesh",
      "city": "Jabalpur",
      "station": "Govindh Bhavan Colony, Jabalpur - JMC",
      "last_update": "24-01-2025 08:00:00",
      "latitude": "23.163174",
      "longitude": "79.973061",
      "pollutant_id": "PM10",
      "min_value": "50",
      "max_value": "92",
      "avg_value": "69"
    },
    {
      "country": "India",
      "state": "Madhya Pradesh",
      "city": "Jabalpur",
      "station": "Govindh Bhavan Colony, Jabalpur - JMC",
      "last_update": "24-01-2025 08:00:00",
      "latitude": "23.163174",
      "longitude": "79.973061",
      "pollutant_id": "NO2",
      "min_value": "10",
      "max_value": "32",
      "avg_value": "21"
    },
    {
      "country": "India",
      "state": "Madhya Pradesh",
      "city": "Jabalpur",
      "station": "Govindh Bhavan Colony, Jabalpur - JMC",
      "last_update": "24-01-2025 08:00:00",
      "latitude": "23.163174",
      "longitude": "79.973061",
      "pollutant_id": "CO",
      "min_value": "21",
      "max_value": "42",
      "avg_value": "25"
    },
    {
      "country": "India",
      "state": "Madhya Pradesh",
      "city": "Jabalpur",
      "station": "Gupteshwar, Jabalpur - JMC",
      "last_update": "24-01-2025 08:00:00",
      "latitude": "23.142888",
      "longitude": "79.916147",
      "pollutant_id": "PM2.5",
      "min_value": "23",
      "max_value": "200",
      "avg_value": "64"
    },
    {
      "country": "India",
      "state": "Madhya Pradesh",
      "city": "Jabalpur",
      "station": "Gupteshwar, Jabalpur - JMC",
      "last_update": "24-01-2025 08:00:00",
      "latitude": "23.142888",
      "longitude": "79.916147",
      "pollutant_id": "NO2",
      "min_value": "36",
      "max_value": "134",
      "avg_value": "61"
    },
    {
      "country": "India",
      "state": "Madhya Pradesh",
      "city": "Jabalpur",
      "station": "Gupteshwar, Jabalpur - JMC",
      "last_update": "24-01-2025 08:00:00",
      "latitude": "23.142888",
      "longitude": "79.916147",
      "pollutant_id": "NH3",
      "min_value": "2",
      "max_value": "3",
      "avg_value": "3"
    },
    {
      "country": "India",
      "state": "Madhya Pradesh",
      "city": "Jabalpur",
      "station": "Marhatal, Jabalpur - MPPCB",
      "last_update": "24-01-2025 08:00:00",
      "latitude": "23.168606",
      "longitude": "79.932247",
      "pollutant_id": "PM2.5",
      "min_value": "37",
      "max_value": "170",
      "avg_value": "80"
    },
    {
      "country": "India",
      "state": "Madhya Pradesh",
      "city": "Jabalpur",
      "station": "Marhatal, Jabalpur - MPPCB",
      "last_update": "24-01-2025 08:00:00",
      "latitude": "23.168606",
      "longitude": "79.932247",
      "pollutant_id": "SO2",
      "min_value": "2",
      "max_value": "8",
      "avg_value": "6"
    },
    {
      "country": "India",
      "state": "Madhya Pradesh",
      "city": "Jabalpur",
      "station": "Suhagi, Jabalpur - JMC",
      "last_update": "24-01-2025 08:00:00",
      "latitude": "23.218135",
      "longitude": "79.957770",
      "pollutant_id": "NH3",
      "min_value": "1",
      "max_value": "3",
      "avg_value": "2"
    },
    {
      "country": "India",
      "state": "Madhya Pradesh",
      "city": "Jabalpur",
      "station": "Suhagi, Jabalpur - JMC",
      "last_update": "24-01-2025 08:00:00",
      "latitude": "23.218135",
      "longitude": "79.957770",
      "pollutant_id": "SO2",
      "min_value": "7",
      "max_value": "23",
      "avg_value": "11"
    },
    {
      "country": "India",
      "state": "Madhya Pradesh",
      "city": "Jabalpur",
      "station": "Suhagi, Jabalpur - JMC",
      "last_update": "24-01-2025 08:00:00",
      "latitude": "23.218135",
      "longitude": "79.957770",
      "pollutant_id": "CO",
      "min_value": "10",
      "max_value": "110",
      "avg_value": "36"
    },
    {
      "country": "India",
      "state": "Madhya Pradesh",
      "city": "Mandideep",
      "station": "Sector-D Industrial Area, Mandideep - MPPCB",
      "last_update": "24-01-2025 08:00:00",
      "latitude": "23.108440",
      "longitude": "77.511428",
      "pollutant_id": "PM2.5",
      "min_value": "80",
      "max_value": "358",
      "avg_value": "186"
    },
    {
      "country": "India",
      "state": "Madhya Pradesh",
      "city": "Mandideep",
      "station": "Sector-D Industrial Area, Mandideep - MPPCB",
      "last_update": "24-01-2025 08:00:00",
      "latitude": "23.108440",
      "longitude": "77.511428",
      "pollutant_id": "NH3",
      "min_value": "1",
      "max_value": "7",
      "avg_value": "3"
    },
    {
      "country": "India",
      "state": "Madhya Pradesh",
      "city": "Mandideep",
      "station": "Sector-D Industrial Area, Mandideep - MPPCB",
      "last_update": "24-01-2025 08:00:00",
      "latitude": "23.108440",
      "longitude": "77.511428",
      "pollutant_id": "CO",
      "min_value": "20",
      "max_value": "104",
      "avg_value": "57"
    },
    {
      "country": "India",
      "state": "Madhya Pradesh",
      "city": "Pithampur",
      "station": "Sector-2 Industrial Area, Pithampur - MPPCB",
      "last_update": "24-01-2025 08:00:00",
      "latitude": "22.624758",
      "longitude": "75.675238",
      "pollutant_id": "PM2.5",
      "min_value": "98",
      "max_value": "357",
      "avg_value": "228"
    },
    {
      "country": "India",
      "state": "Madhya Pradesh",
      "city": "Pithampur",
      "station": "Sector-2 Industrial Area, Pithampur - MPPCB",
      "last_update": "24-01-2025 08:00:00",
      "latitude": "22.624758",
      "longitude": "75.675238",
      "pollutant_id": "OZONE",
      "min_value": "60",
      "max_value": "179",
      "avg_value": "66"
    },
    {
      "country": "India",
      "state": "Madhya Pradesh",
      "city": "Sagar",
      "station": "Deen Dayal Nagar, Sagar - MPPCB",
      "last_update": "24-01-2025 08:00:00",
      "latitude": "23.8640158",
      "longitude": "78.80289321",
      "pollutant_id": "SO2",
      "min_value": "NA",
      "max_value": "NA",
      "avg_value": "NA"
    },
    {
      "country": "India",
      "state": "Madhya Pradesh",
      "city": "Singrauli",
      "station": "Suryakiran Bhawan NCL, Singrauli - MPPCB",
      "last_update": "24-01-2025 08:00:00",
      "latitude": "24.108970",
      "longitude": "82.645580",
      "pollutant_id": "PM10",
      "min_value": "95",
      "max_value": "299",
      "avg_value": "164"
    },
    {
      "country": "India",
      "state": "Madhya Pradesh",
      "city": "Singrauli",
      "station": "Suryakiran Bhawan NCL, Singrauli - MPPCB",
      "last_update": "24-01-2025 08:00:00",
      "latitude": "24.108970",
      "longitude": "82.645580",
      "pollutant_id": "CO",
      "min_value": "22",
      "max_value": "127",
      "avg_value": "112"
    },
    {
      "country": "India",
      "state": "Madhya Pradesh",
      "city": "Singrauli",
      "station": "Suryakiran Bhawan NCL, Singrauli - MPPCB",
      "last_update": "24-01-2025 08:00:00",
      "latitude": "24.108970",
      "longitude": "82.645580",
      "pollutant_id": "OZONE",
      "min_value": "5",
      "max_value": "80",
      "avg_value": "16"
    },
    {
      "country": "India",
      "state": "Maharashtra",
      "city": "Amravati",
      "station": "Shivneri Colony, Amravati - MPCB",
      "last_update": "24-01-2025 08:00:00",
      "latitude": "20.9402359",
      "longitude": "77.7895248",
      "pollutant_id": "SO2",
      "min_value": "16",
      "max_value": "21",
      "avg_value": "18"
    },
    {
      "country": "India",
      "state": "Maharashtra",
      "city": "Amravati",
      "station": "Shivneri Colony, Amravati - MPCB",
      "last_update": "24-01-2025 08:00:00",
      "latitude": "20.9402359",
      "longitude": "77.7895248",
      "pollutant_id": "OZONE",
      "min_value": "10",
      "max_value": "71",
      "avg_value": "24"
    },
    {
      "country": "India",
      "state": "Maharashtra",
      "city": "Amravati",
      "station": "Shri Shivaji Science College, Amaravati - MPCB",
      "last_update": "24-01-2025 08:00:00",
      "latitude": "20.939198",
      "longitude": "77.765701",
      "pollutant_id": "PM2.5",
      "min_value": "74",
      "max_value": "109",
      "avg_value": "91"
    },
    {
      "country": "India",
      "state": "Maharashtra",
      "city": "Amravati",
      "station": "Shri Shivaji Science College, Amaravati - MPCB",
      "last_update": "24-01-2025 08:00:00",
      "latitude": "20.939198",
      "longitude": "77.765701",
      "pollutant_id": "PM10",
      "min_value": "92",
      "max_value": "466",
      "avg_value": "155"
    },
    {
      "country": "India",
      "state": "Madhya Pradesh",
      "city": "Katni",
      "station": "Gole Bazar, Katni - MPPCB",
      "last_update": "24-01-2025 08:00:00",
      "latitude": "23.50016",
      "longitude": "80.23284",
      "pollutant_id": "OZONE",
      "min_value": "14",
      "max_value": "98",
      "avg_value": "38"
    },
    {
      "country": "India",
      "state": "Madhya Pradesh",
      "city": "Maihar",
      "station": "Sahilara, Maihar - KJS Cements",
      "last_update": "24-01-2025 08:00:00",
      "latitude": "24.2613009",
      "longitude": "80.7231783",
      "pollutant_id": "PM10",
      "min_value": "28",
      "max_value": "74",
      "avg_value": "48"
    },
    {
      "country": "India",
      "state": "Madhya Pradesh",
      "city": "Maihar",
      "station": "Sahilara, Maihar - KJS Cements",
      "last_update": "24-01-2025 08:00:00",
      "latitude": "24.2613009",
      "longitude": "80.7231783",
      "pollutant_id": "SO2",
      "min_value": "8",
      "max_value": "8",
      "avg_value": "8"
    },
    {
      "country": "India",
      "state": "Madhya Pradesh",
      "city": "Indore",
      "station": "Airport Area, Indore - IMC",
      "last_update": "24-01-2025 08:00:00",
      "latitude": "22.7289",
      "longitude": "75.8076",
      "pollutant_id": "PM2.5",
      "min_value": "2",
      "max_value": "13",
      "avg_value": "7"
    },
    {
      "country": "India",
      "state": "Madhya Pradesh",
      "city": "Indore",
      "station": "Chhoti Gwaltoli, Indore - MPPCB",
      "last_update": "24-01-2025 08:00:00",
      "latitude": "22.4310",
      "longitude": "75.5213",
      "pollutant_id": "PM10",
      "min_value": "114",
      "max_value": "290",
      "avg_value": "151"
    },
    {
      "country": "India",
      "state": "Madhya Pradesh",
      "city": "Indore",
      "station": "Chhoti Gwaltoli, Indore - MPPCB",
      "last_update": "24-01-2025 08:00:00",
      "latitude": "22.4310",
      "longitude": "75.5213",
      "pollutant_id": "NH3",
      "min_value": "5",
      "max_value": "7",
      "avg_value": "6"
    },
    {
      "country": "India",
      "state": "Maharashtra",
      "city": "Aurangabad",
      "station": "More Chowk Waluj, Aurangabad - MPCB",
      "last_update": "24-01-2025 08:00:00",
      "latitude": "19.8389439",
      "longitude": "75.244448",
      "pollutant_id": "PM10",
      "min_value": "86",
      "max_value": "146",
      "avg_value": "108"
    },
    {
      "country": "India",
      "state": "Maharashtra",
      "city": "Aurangabad",
      "station": "Rachnakar Colony, Aurangabad - MPCB",
      "last_update": "24-01-2025 08:00:00",
      "latitude": "19.863756",
      "longitude": "75.321188",
      "pollutant_id": "PM10",
      "min_value": "94",
      "max_value": "242",
      "avg_value": "122"
    },
    {
      "country": "India",
      "state": "Maharashtra",
      "city": "Akola",
      "station": "Ramdaspeth, Akola - MPCB",
      "last_update": "24-01-2025 08:00:00",
      "latitude": "20.719516",
      "longitude": "77.000253",
      "pollutant_id": "OZONE",
      "min_value": "1",
      "max_value": "115",
      "avg_value": "1"
    },
    {
      "country": "India",
      "state": "Maharashtra",
      "city": "Badlapur",
      "station": "Katrap, Badlapur - MPCB",
      "last_update": "24-01-2025 08:00:00",
      "latitude": "19.16485",
      "longitude": "73.23409",
      "pollutant_id": "CO",
      "min_value": "22",
      "max_value": "55",
      "avg_value": "36"
    },
    {
      "country": "India",
      "state": "Maharashtra",
      "city": "Bhiwandi",
      "station": "Gokul Nagar, Bhiwandi - MPCB",
      "last_update": "24-01-2025 08:00:00",
      "latitude": "19.309073",
      "longitude": "73.057223",
      "pollutant_id": "SO2",
      "min_value": "5",
      "max_value": "24",
      "avg_value": "15"
    },
    {
      "country": "India",
      "state": "Maharashtra",
      "city": "Bhiwandi",
      "station": "Gokul Nagar, Bhiwandi - MPCB",
      "last_update": "24-01-2025 08:00:00",
      "latitude": "19.309073",
      "longitude": "73.057223",
      "pollutant_id": "OZONE",
      "min_value": "16",
      "max_value": "98",
      "avg_value": "21"
    },
    {
      "country": "India",
      "state": "Maharashtra",
      "city": "Boisar",
      "station": "Khaira, Boisar - MPCB",
      "last_update": "24-01-2025 08:00:00",
      "latitude": "19.786089",
      "longitude": "72.757971",
      "pollutant_id": "SO2",
      "min_value": "10",
      "max_value": "45",
      "avg_value": "28"
    },
    {
      "country": "India",
      "state": "Maharashtra",
      "city": "Chandrapur",
      "station": "Chauhan Colony, Chandrapur - MPCB",
      "last_update": "24-01-2025 08:00:00",
      "latitude": "19.962900",
      "longitude": "79.298714",
      "pollutant_id": "PM2.5",
      "min_value": "81",
      "max_value": "233",
      "avg_value": "136"
    },
    {
      "country": "India",
      "state": "Maharashtra",
      "city": "Mahad",
      "station": "Kamble Tarf Birwadi, Mahad - MPCB",
      "last_update": "24-01-2025 08:00:00",
      "latitude": "18.1023399",
      "longitude": "73.4783687",
      "pollutant_id": "SO2",
      "min_value": "7",
      "max_value": "45",
      "avg_value": "15"
    },
    {
      "country": "India",
      "state": "Maharashtra",
      "city": "Malegaon",
      "station": "Mahesh Nagar, Malegaon - MPCB",
      "last_update": "24-01-2025 08:00:00",
      "latitude": "20.555712",
      "longitude": "74.529236",
      "pollutant_id": "PM2.5",
      "min_value": "86",
      "max_value": "177",
      "avg_value": "128"
    },
    {
      "country": "India",
      "state": "Maharashtra",
      "city": "Malegaon",
      "station": "Mahesh Nagar, Malegaon - MPCB",
      "last_update": "24-01-2025 08:00:00",
      "latitude": "20.555712",
      "longitude": "74.529236",
      "pollutant_id": "NH3",
      "min_value": "3",
      "max_value": "9",
      "avg_value": "4"
    },
    {
      "country": "India",
      "state": "Maharashtra",
      "city": "Malegaon",
      "station": "Mahesh Nagar, Malegaon - MPCB",
      "last_update": "24-01-2025 08:00:00",
      "latitude": "20.555712",
      "longitude": "74.529236",
      "pollutant_id": "OZONE",
      "min_value": "4",
      "max_value": "79",
      "avg_value": "14"
    },
    {
      "country": "India",
      "state": "Maharashtra",
      "city": "Mumbai",
      "station": "Bandra Kurla Complex, Mumbai - MPCB",
      "last_update": "24-01-2025 08:00:00",
      "latitude": "19.065931",
      "longitude": "72.862131",
      "pollutant_id": "OZONE",
      "min_value": "1",
      "max_value": "116",
      "avg_value": "1"
    },
    {
      "country": "India",
      "state": "Maharashtra",
      "city": "Mumbai",
      "station": "Borivali East, Mumbai - MPCB",
      "last_update": "24-01-2025 08:00:00",
      "latitude": "19.2243333",
      "longitude": "72.8658113",
      "pollutant_id": "PM10",
      "min_value": "60",
      "max_value": "129",
      "avg_value": "95"
    },
    {
      "country": "India",
      "state": "Maharashtra",
      "city": "Mumbai",
      "station": "Borivali East, Mumbai - MPCB",
      "last_update": "24-01-2025 08:00:00",
      "latitude": "19.2243333",
      "longitude": "72.8658113",
      "pollutant_id": "NH3",
      "min_value": "2",
      "max_value": "2",
      "avg_value": "2"
    },
    {
      "country": "India",
      "state": "Maharashtra",
      "city": "Mumbai",
      "station": "Byculla, Mumbai - BMC",
      "last_update": "24-01-2025 08:00:00",
      "latitude": "18.9767",
      "longitude": "72.8380",
      "pollutant_id": "SO2",
      "min_value": "4",
      "max_value": "17",
      "avg_value": "11"
    },
    {
      "country": "India",
      "state": "Maharashtra",
      "city": "Mumbai",
      "station": "Chembur, Mumbai - MPCB",
      "last_update": "24-01-2025 08:00:00",
      "latitude": "19.0364585",
      "longitude": "72.8954371",
      "pollutant_id": "PM2.5",
      "min_value": "77",
      "max_value": "126",
      "avg_value": "93"
    },
    {
      "country": "India",
      "state": "Maharashtra",
      "city": "Dhule",
      "station": "Deopur, Dhule - MPCB",
      "last_update": "24-01-2025 08:00:00",
      "latitude": "20.918946",
      "longitude": "74.776388",
      "pollutant_id": "PM10",
      "min_value": "82",
      "max_value": "133",
      "avg_value": "105"
    },
    {
      "country": "India",
      "state": "Maharashtra",
      "city": "Dhule",
      "station": "Deopur, Dhule - MPCB",
      "last_update": "24-01-2025 08:00:00",
      "latitude": "20.918946",
      "longitude": "74.776388",
      "pollutant_id": "CO",
      "min_value": "18",
      "max_value": "70",
      "avg_value": "25"
    },
    {
      "country": "India",
      "state": "Maharashtra",
      "city": "Jalgaon",
      "station": "Prabhat Colony, Jalgaon - MPCB",
      "last_update": "24-01-2025 08:00:00",
      "latitude": "21.001264",
      "longitude": "75.565602",
      "pollutant_id": "NH3",
      "min_value": "1",
      "max_value": "10",
      "avg_value": "6"
    },
    {
      "country": "India",
      "state": "Maharashtra",
      "city": "Kolhapur",
      "station": "Shivaji University, Kolhapur - MPCB",
      "last_update": "24-01-2025 08:00:00",
      "latitude": "16.6870449",
      "longitude": "74.2505872",
      "pollutant_id": "SO2",
      "min_value": "1",
      "max_value": "25",
      "avg_value": "8"
    },
    {
      "country": "India",
      "state": "Maharashtra",
      "city": "Latur",
      "station": "Sawe Wadi, Latur - MPCB",
      "last_update": "24-01-2025 08:00:00",
      "latitude": "18.39963",
      "longitude": "76.57452",
      "pollutant_id": "PM2.5",
      "min_value": "67",
      "max_value": "214",
      "avg_value": "117"
    },
    {
      "country": "India",
      "state": "Maharashtra",
      "city": "Kalyan",
      "station": "Pimpleshwar Mandir, Kalyan - MPCB",
      "last_update": "24-01-2025 08:00:00",
      "latitude": "19.192056",
      "longitude": "72.9585188",
      "pollutant_id": "PM10",
      "min_value": "93",
      "max_value": "150",
      "avg_value": "121"
    },
    {
      "country": "India",
      "state": "Maharashtra",
      "city": "Jalgaon",
      "station": "Prabhat Colony, Jalgaon - MPCB",
      "last_update": "24-01-2025 08:00:00",
      "latitude": "21.001264",
      "longitude": "75.565602",
      "pollutant_id": "OZONE",
      "min_value": "1",
      "max_value": "106",
      "avg_value": "35"
    },
    {
      "country": "India",
      "state": "Maharashtra",
      "city": "Chandrapur",
      "station": "Chauhan Colony, Chandrapur - MPCB",
      "last_update": "24-01-2025 08:00:00",
      "latitude": "19.962900",
      "longitude": "79.298714",
      "pollutant_id": "NH3",
      "min_value": "1",
      "max_value": "1",
      "avg_value": "1"
    },
    {
      "country": "India",
      "state": "Maharashtra",
      "city": "Jalna",
      "station": "Old MIDC, Jalna - MPCB",
      "last_update": "24-01-2025 08:00:00",
      "latitude": "19.854616",
      "longitude": "75.905894",
      "pollutant_id": "NH3",
      "min_value": "3",
      "max_value": "5",
      "avg_value": "4"
    },
    {
      "country": "India",
      "state": "Maharashtra",
      "city": "Mumbai",
      "station": "Colaba, Mumbai - MPCB",
      "last_update": "24-01-2025 08:00:00",
      "latitude": "18.910000",
      "longitude": "72.820000",
      "pollutant_id": "NO2",
      "min_value": "23",
      "max_value": "27",
      "avg_value": "24"
    },
    {
      "country": "India",
      "state": "Maharashtra",
      "city": "Mumbai",
      "station": "Colaba, Mumbai - MPCB",
      "last_update": "24-01-2025 08:00:00",
      "latitude": "18.910000",
      "longitude": "72.820000",
      "pollutant_id": "OZONE",
      "min_value": "10",
      "max_value": "11",
      "avg_value": "11"
    },
    {
      "country": "India",
      "state": "Maharashtra",
      "city": "Mumbai",
      "station": "Deonar, Mumbai - IITM",
      "last_update": "24-01-2025 08:00:00",
      "latitude": "19.04946",
      "longitude": "72.9230",
      "pollutant_id": "PM2.5",
      "min_value": "NA",
      "max_value": "NA",
      "avg_value": "NA"
    },
    {
      "country": "India",
      "state": "Maharashtra",
      "city": "Mumbai",
      "station": "Deonar, Mumbai - IITM",
      "last_update": "24-01-2025 08:00:00",
      "latitude": "19.04946",
      "longitude": "72.9230",
      "pollutant_id": "OZONE",
      "min_value": "NA",
      "max_value": "NA",
      "avg_value": "NA"
    },
    {
      "country": "India",
      "state": "Maharashtra",
      "city": "Mumbai",
      "station": "Ghatkopar, Mumbai - BMC",
      "last_update": "24-01-2025 08:00:00",
      "latitude": "19.083694",
      "longitude": "72.920967",
      "pollutant_id": "SO2",
      "min_value": "1",
      "max_value": "14",
      "avg_value": "6"
    },
    {
      "country": "India",
      "state": "Maharashtra",
      "city": "Mumbai",
      "station": "Ghatkopar, Mumbai - BMC",
      "last_update": "24-01-2025 08:00:00",
      "latitude": "19.083694",
      "longitude": "72.920967",
      "pollutant_id": "OZONE",
      "min_value": "2",
      "max_value": "133",
      "avg_value": "3"
    },
    {
      "country": "India",
      "state": "Maharashtra",
      "city": "Mumbai",
      "station": "Kandivali East, Mumbai - MPCB",
      "last_update": "24-01-2025 08:00:00",
      "latitude": "19.205800",
      "longitude": "72.868200",
      "pollutant_id": "CO",
      "min_value": "6",
      "max_value": "8",
      "avg_value": "8"
    },
    {
      "country": "India",
      "state": "Maharashtra",
      "city": "Mumbai",
      "station": "Kherwadi_Bandra East, Mumbai - MPCB",
      "last_update": "24-01-2025 08:00:00",
      "latitude": "19.0632143",
      "longitude": "72.8456324",
      "pollutant_id": "PM2.5",
      "min_value": "61",
      "max_value": "141",
      "avg_value": "93"
    },
    {
      "country": "India",
      "state": "Maharashtra",
      "city": "Mumbai",
      "station": "Kherwadi_Bandra East, Mumbai - MPCB",
      "last_update": "24-01-2025 08:00:00",
      "latitude": "19.0632143",
      "longitude": "72.8456324",
      "pollutant_id": "PM10",
      "min_value": "85",
      "max_value": "127",
      "avg_value": "105"
    },
    {
      "country": "India",
      "state": "Maharashtra",
      "city": "Mumbai",
      "station": "Kherwadi_Bandra East, Mumbai - MPCB",
      "last_update": "24-01-2025 08:00:00",
      "latitude": "19.0632143",
      "longitude": "72.8456324",
      "pollutant_id": "NO2",
      "min_value": "32",
      "max_value": "120",
      "avg_value": "75"
    },